[{"name":"American Playground","latitude":"40.7288","longitude":"-73.9579","website":"http://www.nycgovparks.org/parks/B001/","nycParkId":"B001","location":"Franklin St. bet. Milton St. and Noble St."},{"name":"Amersfort Park","latitude":40.63064893476279,"longitude":-73.9395887823165,"website":"http://www.nycgovparks.org/parks/B002/","nycParkId":"B002","location":"E. 38 St., E. 38 St. bet. Ave. I and Ave. J"},{"name":"Bartel-Pritchard Square","latitude":40.660999,"longitude":-73.97986751592063,"website":"http://www.nycgovparks.org/parks/B003/","nycParkId":"B003","location":"Prospect Park W., 15 St."},{"name":"Beattie Square","latitude":40.69661135578669,"longitude":-73.93450820048989,"website":"http://www.nycgovparks.org/parks/B006/","nycParkId":"B006","location":"Broadway, Stuyvesant Ave., Vernon Ave."},{"name":"Bensonhurst Park","latitude":"40.5969","longitude":"-73.9998","website":"http://www.nycgovparks.org/parks/B007/","nycParkId":"B007","location":"Cropsey Ave. bet. 21 Ave. and Bay Pkwy."},{"name":"Betsy Head Park","latitude":"40.6645","longitude":"-73.9118","website":"http://www.nycgovparks.org/parks/B008/","nycParkId":"B008","location":"Livonia,Dumont,Hopkinson,Blake Aves, Strauss St"},{"name":"Brooklyn Botanic Garden","latitude":40.667548,"longitude":-73.9622201,"website":"http://www.nycgovparks.org/parks/B010/","nycParkId":"B010","location":"Washington Ave., Flatbush Ave. bet. Eastern Pkwy. and Empire Blvd."},{"name":"Brower Park","latitude":"40.6735","longitude":"-73.9438","website":"http://www.nycgovparks.org/parks/B012/","nycParkId":"B012","location":"St. Mark's Ave., Park Pl. bet. Brooklyn Ave. and Kingston Ave."},{"name":"Maria Hernandez Park","latitude":"40.7028","longitude":"-73.9243","website":"http://www.nycgovparks.org/parks/B016/","nycParkId":"B016","location":"Irving Ave., Kinickerbocker Ave. bet. Starr St. and Suydam St."},{"name":"Bushwick Playground","latitude":"40.6961","longitude":"-73.9122","website":"http://www.nycgovparks.org/parks/B017/","nycParkId":"B017","location":"Knickerbocker Ave. bet. Woodbine St. and Putnam Ave."},{"name":"Canarsie Park","latitude":"40.6308","longitude":"-73.893","website":"http://www.nycgovparks.org/parks/B018/","nycParkId":"B018","location":"Belt Pkwy, Seaview Ave Btw: Paerdegat Basin, E 93 S, E 102 St, Fresh Creek Basin"},{"name":"Carroll Park","latitude":"40.6811","longitude":"-73.9954","website":"http://www.nycgovparks.org/parks/B019/","nycParkId":"B019","location":"Court St., Smith St., bet. Carroll St. and President St."},{"name":"Commodore Barry Park","latitude":"40.6973","longitude":"-73.9789","website":"http://www.nycgovparks.org/parks/B021/","nycParkId":"B021","location":"Nassau St., Park Ave., bet. Navy St. and N. Elliot Pl."},{"name":"Middleton Playground","latitude":"40.7007","longitude":"-73.9554","website":"http://www.nycgovparks.org/parks/B022/","nycParkId":"B022","location":"Lynch St., Middleton St. bet. Lee Ave. and Bedford Ave."},{"name":"Lafayette Playground","latitude":"40.6926","longitude":"-73.9301","website":"http://www.nycgovparks.org/parks/B023/","nycParkId":"B023","location":"Lafayette Ave. bet. Malcolm X Blvd. and Patch Ave."},{"name":"Cooper Park","latitude":"40.7159","longitude":"-73.9375","website":"http://www.nycgovparks.org/parks/B025/","nycParkId":"B025","location":"Maspeth Ave., Sharon St. bet. Olive St. and Morgan Ave."},{"name":"Cuyler Gore Park","latitude":"40.6857","longitude":"-73.9722","website":"http://www.nycgovparks.org/parks/B026/","nycParkId":"B026","location":"Carlton Ave., Fulton St., Green Ave."},{"name":"Veterans Triangle","latitude":40.62019,"longitude":-73.9069095,"website":"http://www.nycgovparks.org/parks/B027/","nycParkId":"B027","location":"Hegeman Ave., New Lots Ave. bet. Watkins St. and Mother Gaston Blvd."},{"name":"Dyker Beach Park","latitude":"40.6067","longitude":"-74.0163","website":"http://www.nycgovparks.org/parks/B028/","nycParkId":"B028","location":"86 St., Belt Pkwy. bet. Bay 8 St., 14 Ave., and 7 Ave."},{"name":"Fidelity Triangle","latitude":40.721320125,"longitude":-73.94168325000001,"website":"http://www.nycgovparks.org/parks/B031/","nycParkId":"B031","location":"Monitor St. bet. Engert Ave. and Meeker Ave."},{"name":"Fort Greene Park","latitude":"40.6924","longitude":"-73.9771","website":"http://www.nycgovparks.org/parks/B032/","nycParkId":"B032","location":"Myrtle Ave., De Kalb Ave. bet. Washington Park and St. Edward's St."},{"name":"Fort Hamilton Triangle","latitude":40.6187154,"longitude":-74.0331957,"website":"http://www.nycgovparks.org/parks/B033/","nycParkId":"B033","location":"5 Ave., 4 Ave., 94 St."},{"name":"John Paul Jones Park","latitude":40.61100155,"longitude":-74.03385628649725,"website":"http://www.nycgovparks.org/parks/B035/","nycParkId":"B035","location":"101 St., Shore Pkwy. bet. 4 Ave. and Ft. Hamilton Pkwy."},{"name":"Fort Stirling Park","latitude":40.69871,"longitude":-73.99625449999999,"website":"http://www.nycgovparks.org/parks/B036/","nycParkId":"B036","location":"Clark St. at Columbia Heights and the Brooklyn-Queens Exwy."},{"name":"Freedom Triangle","latitude":40.69708706666666,"longitude":-73.93204243333332,"website":"http://www.nycgovparks.org/parks/B037/","nycParkId":"B037","location":"Bushwick Ave., Myrtle Ave., Willoughby Ave."},{"name":"Fulton Park","latitude":40.6797883,"longitude":-73.9316137,"website":"http://www.nycgovparks.org/parks/B038/","nycParkId":"B038","location":"Chauncey St. bet. Lewis Ave. and Stuyvesant Ave."},{"name":"Grand Army Plaza","latitude":40.6749223,"longitude":-73.9708155,"website":"http://www.nycgovparks.org/parks/B040/","nycParkId":"B040","location":"Flatbush Ave., Eastern Pkwy. and Prospect Park"},{"name":"Grant Gore","latitude":40.67700477942966,"longitude":-73.95278973118924,"website":"http://www.nycgovparks.org/parks/B041/","nycParkId":"B041","location":"Bedford Ave., Rodgers Ave., Bergen St."},{"name":"Gravesend Park","latitude":"40.6238","longitude":"-73.9849","website":"http://www.nycgovparks.org/parks/B042/","nycParkId":"B042","location":"18 Ave., 19 Ave., bet. 55 St. and 58 St."},{"name":"Greenpoint Playground","latitude":"40.7357","longitude":"-73.9592","website":"http://www.nycgovparks.org/parks/B043/","nycParkId":"B043","location":"Franklin St. bet. Commerical St. and Dupoint St."},{"name":"Dr. Ronald McNair Park","latitude":40.67044175,"longitude":-73.9620018306864,"website":"http://www.nycgovparks.org/parks/B044/","nycParkId":"B044","location":"Eastern Pkwy., Washington Ave., Classon Ave."},{"name":"Heisser Triangle","latitude":40.698709,"longitude":-73.918512,"website":"http://www.nycgovparks.org/parks/B045/","nycParkId":"B045","location":"Knickerbocker Ave., Myrtle Ave., Bleecker St."},{"name":"Highland Park","latitude":40.68243314285714,"longitude":-73.88865,"website":"http://www.nycgovparks.org/parks/B047/","nycParkId":"B047","location":"Jamaica Ave. and Highland Blvd. from Highland Pl. to Bulwer Pl."},{"name":"Brooklyn Museum","latitude":40.671619367265315,"longitude":-73.96296620148763,"website":"http://www.nycgovparks.org/parks/B048/","nycParkId":"B048","location":"Eastern Pkwy. at Washington Ave."},{"name":"Irving Square Park","latitude":"40.6925","longitude":"-73.9092","website":"http://www.nycgovparks.org/parks/B049/","nycParkId":"B049","location":"Wilson Ave., Knickerbocker Ave., bet. Halsey St. and Weirfield St."},{"name":"Van Voorhees Playground","latitude":"40.6909","longitude":"-73.9994","website":"http://www.nycgovparks.org/parks/B050/","nycParkId":"B050","location":"Columbia St., Hicks St. bet. Congress St. and Atlantic Ave."},{"name":"Kelly Park Playground","latitude":"40.6042","longitude":"-73.9577","website":"http://www.nycgovparks.org/parks/B051/","nycParkId":"B051","location":"Ave. S bet. E. 14 St. and E. 15 St."},{"name":"Leif Ericson Park","latitude":"40.6356","longitude":"-74.0195","website":"http://www.nycgovparks.org/parks/B052/","nycParkId":"B052","location":"67 St., 66 St. bet. 4 Ave. and Ft. Hamilton Pkwy."},{"name":"Somers Park","latitude":"40.6664","longitude":"-73.9279","website":"http://www.nycgovparks.org/parks/B054/","nycParkId":"B054","location":"Eastern Pkwy., E. New York Ave. bet. Rochester Ave. and Portal St."},{"name":"Sternberg Park","latitude":"40.7062","longitude":"-73.9472","website":"http://www.nycgovparks.org/parks/B055/","nycParkId":"B055","location":"Lorimer St. bet. Montrose Ave. and Boerum St. "},{"name":"Martin Luther King Jr. Playground","latitude":"40.6677","longitude":"-73.8904","website":"http://www.nycgovparks.org/parks/B056/","nycParkId":"B056","location":"Dumont Ave., Blake Ave. bet. Bradford St. and Miller Ave."},{"name":"Marine Park","latitude":"40.607","longitude":"-73.9382","website":"http://www.nycgovparks.org/parks/B057/","nycParkId":"B057","location":"Flatbush, Gerritsen & Fillmore Aves, Jamaica Bay"},{"name":"McCarren Park","latitude":"40.7211","longitude":"-73.9497","website":"http://www.nycgovparks.org/parks/B058/","nycParkId":"B058","location":"Nassau Ave, Bayard, Leonard & N 12 Sts"},{"name":"McKinley Park","latitude":"40.6264","longitude":"-74.0169","website":"http://www.nycgovparks.org/parks/B060/","nycParkId":"B060","location":"73 St., Ft. Hamilton Pkwy., 7 Ave."},{"name":"McLaughlin Park","latitude":"40.6965","longitude":"-73.9861","website":"http://www.nycgovparks.org/parks/B061/","nycParkId":"B061","location":"Jay St., Bridge St. bet. Tillary St. and Cathedral Pl."},{"name":"Memorial Gore","latitude":40.7148554,"longitude":-73.94233750065683,"website":"http://www.nycgovparks.org/parks/B062/","nycParkId":"B062","location":"Metropolitan Ave., Maspeth Ave., bet. Humbolt St. and Bushwick Ave."},{"name":"Milestone Park","latitude":40.620671,"longitude":-73.990414,"website":"http://www.nycgovparks.org/parks/B063/","nycParkId":"B063","location":"18 Ave. bet. 81 St. and 82 St."},{"name":"Ocean Parkway Malls","latitude":40.58413015,"longitude":-73.966655907062,"website":"http://www.nycgovparks.org/parks/B065/","nycParkId":"B065","location":"Ocean Parkway bet. Coney Island Ave., Parkside Ave. and Sea Breeze Ave."},{"name":"Owl's Head Park","latitude":"40.64","longitude":"-74.0305","website":"http://www.nycgovparks.org/parks/B066/","nycParkId":"B066","location":"Shore Rd., 68 St., Colonial Rd."},{"name":"Parade Ground","latitude":"40.6513","longitude":"-73.9654","website":"http://www.nycgovparks.org/parks/B068/","nycParkId":"B068","location":"Parkside Ave., Caton Ave., bet. Parade Pl. and Coney Island Ave."},{"name":"Machate Circle","latitude":40.651009,"longitude":-73.97218899276575,"website":"http://www.nycgovparks.org/parks/B070/","nycParkId":"B070","location":"Park Cir., Parkside Ave., Ocean Pkwy."},{"name":"Prospect Park","latitude":"40.6672","longitude":"-73.9729","website":"http://www.nycgovparks.org/parks/B073/","nycParkId":"B073","location":"Prospect Pk W, Flatbush, Parkside, Ocean Aves"},{"name":"Coffey Park","latitude":"40.6771","longitude":"-74.009","website":"http://www.nycgovparks.org/parks/B077/","nycParkId":"B077","location":"Verona St. bet. Richard St. and Dwight St."},{"name":"Grace Playground","latitude":"40.6714","longitude":"-73.8944","website":"http://www.nycgovparks.org/parks/B078/","nycParkId":"B078","location":"Vermont St. bet. Pitkin Ave. and Belmont Ave."},{"name":"Saratoga Park","latitude":"40.685","longitude":"-73.919","website":"http://www.nycgovparks.org/parks/B079/","nycParkId":"B079","location":"Halsey St. bet. Howard Ave. and Saratoga Ave."},{"name":"Asser Levy Park","latitude":"40.5753","longitude":"-73.9722","website":"http://www.nycgovparks.org/parks/B080/","nycParkId":"B080","location":"Boardwalk, Surf Ave., Sea Breeze Ave., Ocean Parkway"},{"name":"Shore Park and Parkway","latitude":"40.6175","longitude":"-74.04","website":"http://www.nycgovparks.org/parks/B082/","nycParkId":"B082","location":"4 Ave., Shore Rd., Belt Pkwy., Verrazano Bridge"},{"name":"Metropolitan Recreation Center","latitude":40.715158,"longitude":-73.960455,"website":"http://www.nycgovparks.org/parks/B085/","nycParkId":"B085","location":"Bedford Ave. bet. Metropolitan Ave. and N. 1 St."},{"name":"Sunset Park","latitude":"40.6477","longitude":"-74.0035","website":"http://www.nycgovparks.org/parks/B087/","nycParkId":"B087","location":"41 St., 44 St., bet. 5 Ave. and 7 Ave."},{"name":"Herbert Von King Park","latitude":"40.6895","longitude":"-73.9459","website":"http://www.nycgovparks.org/parks/B088/","nycParkId":"B088","location":"Marcy Ave., Tompkins Ave., bet. Greene Ave. and Lafayette Ave."},{"name":"Lowry Triangle","latitude":40.6805657,"longitude":-73.96452064210693,"website":"http://www.nycgovparks.org/parks/B089/","nycParkId":"B089","location":"Pacific St., Washington Ave., Underhill Ave."},{"name":"Sobel Playground","latitude":"40.7074","longitude":"-73.9615","website":"http://www.nycgovparks.org/parks/B090/","nycParkId":"B090","location":"Lee Ave., Division Ave., Roebling St."},{"name":"Weeksville Playground","latitude":"40.6772","longitude":"-73.9195","website":"http://www.nycgovparks.org/parks/B093/","nycParkId":"B093","location":"Howard Ave. bet. Atlantic Ave. and  Herkimer St."},{"name":"Sgt. Joyce Kilmer Triangle","latitude":40.52327,"longitude":-74.43415,"website":"http://www.nycgovparks.org/parks/B094/","nycParkId":"B094","location":"E. 12 St., Kings Hwy., Quentin Rd."},{"name":"Ennis Playground","latitude":null,"longitude":null,"website":"http://www.nycgovparks.org/parks/B095/","nycParkId":"B095","location":"11 St., 12 St. bet. 2 Ave. and 3 Ave."},{"name":"Sgt. William Dougherty Playground","latitude":32.30576,"longitude":-80.95223,"website":"http://www.nycgovparks.org/parks/B096/","nycParkId":"B096","location":"Vandervoort Ave. bet. Cherry St. and Anthony St."},{"name":"Sledge Playground","latitude":"40.6382","longitude":"-73.8978","website":"http://www.nycgovparks.org/parks/B097/","nycParkId":"B097","location":"E. 95 St. bet. Ave. L and Ave. K"},{"name":"Martin Luther Playground","latitude":"40.6458","longitude":"-74.0198","website":"http://www.nycgovparks.org/parks/B098/","nycParkId":"B098","location":"2 Ave. bet. 55 St. and 56 St."},{"name":"Lt. Joseph Petrosino Park","latitude":40.19113,"longitude":-75.13655,"website":"http://www.nycgovparks.org/parks/B099/","nycParkId":"B099","location":"16 Ave., New Utrecht Ave. bet. 70 St. and 71 St."},{"name":"Seth Low Playground/ Bealin Square","latitude":40.60826,"longitude":-73.986274,"website":"http://www.nycgovparks.org/parks/B100/","nycParkId":"B100","location":"W. 12 St. bet. Bay Pkwy. and Ave. P"},{"name":"Crispus Attucks Playground","latitude":"40.6816","longitude":"-73.9592","website":"http://www.nycgovparks.org/parks/B102/","nycParkId":"B102","location":"Classon Ave. bet. Fulton St. and Lefferts Pl."},{"name":"Cypress Hills Playground","latitude":"40.6704","longitude":"-73.8717","website":"http://www.nycgovparks.org/parks/B103/","nycParkId":"B103","location":"Euclid Ave. bet. Dumont Ave. and Blake Ave."},{"name":"Taaffe Playground","latitude":"40.6953","longitude":"-73.9607","website":"http://www.nycgovparks.org/parks/B105/","nycParkId":"B105","location":"Taaffe Pl. bet. Park Ave. and Myrtle Ave."},{"name":"Scarangella Park","latitude":"40.5947","longitude":"-73.9843","website":"http://www.nycgovparks.org/parks/B106A/","nycParkId":"B106A","location":"W. 13 St., Stillwell Ave. bet. Ave. U and Ave. V"},{"name":"Lafayette Playground","latitude":"40.5946","longitude":"-73.9854","website":"http://www.nycgovparks.org/parks/B106B/","nycParkId":"B106B","location":"Stillwell Ave., Benson Ave., Bay 43 St."},{"name":"Lion's Pride Playground","latitude":"40.6626","longitude":"-73.8997","website":"http://www.nycgovparks.org/parks/B107/","nycParkId":"B107","location":"Riverdale Ave. bet. Van Sinderen Ave. and Snediker Ave."},{"name":"Bill Brown Playground","latitude":"40.5922","longitude":"-73.9457","website":"http://www.nycgovparks.org/parks/B109/","nycParkId":"B109","location":"Ave. Y, Ave. X bet. E. 24 St. and Bedford Ave."},{"name":"Marion Hopkinson Playground","latitude":"40.6817","longitude":"-73.9136","website":"http://www.nycgovparks.org/parks/B110/","nycParkId":"B110","location":"Hopkinson Ave. bet. Marion St. and Chauncey St."},{"name":"J.J. Byrne Playground","latitude":"40.6728","longitude":"-73.9842","website":"http://www.nycgovparks.org/parks/B111/","nycParkId":"B111","location":"3 St., 4 St. bet. 4 Ave. and 5 Ave."},{"name":"Washington Park","latitude":"40.673","longitude":"-73.9855","website":"http://www.nycgovparks.org/parks/B111A/","nycParkId":"B111A","location":"5 St., 4 St. bet. 4 Ave. and 5 Ave."},{"name":"Cadman Plaza Park","latitude":40.69844345,"longitude":-73.99062615,"website":"http://www.nycgovparks.org/parks/B113A/","nycParkId":"B113A","location":"Cadman Plaza West, Cadman Plaza East bet. BQE and Tillary St."},{"name":"Korean War Veterans Plaza","latitude":40.6768225,"longitude":-73.9000317,"website":"http://www.nycgovparks.org/parks/B113B/","nycParkId":"B113B","location":"Cadman Plaza West, Cadman Plaza East bet. Tillary St. and Johnson St."},{"name":"Columbus Park","latitude":40.69256675510204,"longitude":-73.9905764489796,"website":"http://www.nycgovparks.org/parks/B113C/","nycParkId":"B113C","location":"Adam St., Court St., Cadman Plaza West bet. Johnson St. and Fulton St."},{"name":"Walt Whitman Park","latitude":40.698219949999995,"longitude":-73.98936975000001,"website":"http://www.nycgovparks.org/parks/B113E/","nycParkId":"B113E","location":"Cadman Plaza East, Adams St. bet. Red Cross Pl. and Tillary St. "},{"name":"Msgr. McGolrick Park","latitude":28.66056,"longitude":-77.13102,"website":"http://www.nycgovparks.org/parks/B114/","nycParkId":"B114","location":"Russell St., Monitor St. bet. Nassau Ave. and Driggs Ave."},{"name":"Cohn Triangle","latitude":40.7073184,"longitude":-73.96462061240801,"website":"http://www.nycgovparks.org/parks/B115/","nycParkId":"B115","location":"Bedford Ave. at Division Ave."},{"name":"Zion Triangle","latitude":40.66877945,"longitude":-73.91858113810945,"website":"http://www.nycgovparks.org/parks/B116/","nycParkId":"B116","location":"Pitkin Ave., E. New York Ave. bet. Crafton St. and Legon St."},{"name":"Lindsay Triangle","latitude":40.706686315789476,"longitude":-73.95313594736841,"website":"http://www.nycgovparks.org/parks/B117/","nycParkId":"B117","location":"Throop Ave., Lormer St., Broadway"},{"name":"St. Mary's Park","latitude":"40.6764","longitude":"-73.9972","website":"http://www.nycgovparks.org/parks/B118A/","nycParkId":"B118A","location":"Smith St. bet. Luquer St. and Nelson St."},{"name":"St. Mary's Park","latitude":"40.6758","longitude":"-73.9975","website":"http://www.nycgovparks.org/parks/B118B/","nycParkId":"B118B","location":"Smith St. bet. Nelson St. and Huntington St."},{"name":"Dodger Playground","latitude":"40.6649","longitude":"-73.9524","website":"http://www.nycgovparks.org/parks/B121/","nycParkId":"B121","location":"Sullican Pl. bet. Rogers Ave. and Nostrand Ave."},{"name":"Alben Triangle","latitude":40.63943905,"longitude":-73.99453899627827,"website":"http://www.nycgovparks.org/parks/B123/","nycParkId":"B123","location":"46 St., 11 Ave., New Utrecht Ave."},{"name":"William Sheridan Playground","latitude":"40.7152","longitude":"-73.9641","website":"http://www.nycgovparks.org/parks/B124/","nycParkId":"B124","location":"Wythe Ave. bet. Grand St. and S. 1 St."},{"name":"Calvert Vaux Park","latitude":"40.5878","longitude":"-73.9906","website":"http://www.nycgovparks.org/parks/B125/","nycParkId":"B125","location":"Gravesend Bay, Bay 44 St. to Bay 49 St., Shore Pkwy."},{"name":"Red Hook Recreation Area","latitude":40.672518,"longitude":-74.004087,"website":"http://www.nycgovparks.org/parks/B126/","nycParkId":"B126","location":"Halleck St., Bush St. bet. Otsego St. and Court St. "},{"name":"Todd Triangle","latitude":40.67235546111345,"longitude":-74.00869023119144,"website":"http://www.nycgovparks.org/parks/B126A/","nycParkId":"B126A","location":"Halleck St. at Columbia St."},{"name":"Martinez Playground","latitude":"40.7091","longitude":"-73.9444","website":"http://www.nycgovparks.org/parks/B127/","nycParkId":"B127","location":"Scholes St. bet. Manhattan Ave. and Graham Ave."},{"name":"Colonel David Marcus Playground","latitude":"40.6097","longitude":"-73.9696","website":"http://www.nycgovparks.org/parks/B128/","nycParkId":"B128","location":"Ave. P bet. E. 4 St. and Ocean Pkwy."},{"name":"Kaiser Park","latitude":"40.5782","longitude":"-73.9954","website":"http://www.nycgovparks.org/parks/B129/","nycParkId":"B129","location":"Neptune Ave., Bayview Ave.,W. 24 St. to W. 32 St."},{"name":"Greenwood Playground","latitude":"40.6502","longitude":"-73.9764","website":"http://www.nycgovparks.org/parks/B130/","nycParkId":"B130","location":"Ft Hamilton Pkwy., Prospect Ave., Greenwood Ave."},{"name":"Rudd Playground","latitude":"40.6832","longitude":"-73.9053","website":"http://www.nycgovparks.org/parks/B131/","nycParkId":"B131","location":"Arberdeen St., Furman Ave. north of Bushwick Ave."},{"name":"Gilbert Ramirez Park","latitude":"40.7059","longitude":"-73.935","website":"http://www.nycgovparks.org/parks/B132/","nycParkId":"B132","location":"Mc Kibbin St. bet. White St. and Bogart St."},{"name":"Newtown Barge Playground","latitude":"40.7359","longitude":"-73.96","website":"http://www.nycgovparks.org/parks/B135/","nycParkId":"B135","location":"Commercial St., Dupont St."},{"name":"Sixteen Sycamores Playground","latitude":"40.6868","longitude":"-73.981","website":"http://www.nycgovparks.org/parks/B137/","nycParkId":"B137","location":"Schermerhorn St. bet. Nevins St. and 3 Ave."},{"name":"Heckscher Playground","latitude":"40.6952","longitude":"-73.9184","website":"http://www.nycgovparks.org/parks/B139/","nycParkId":"B139","location":"Linden St. bet. Central Ave. and Wilson Ave."},{"name":"Banneker Playground","latitude":"40.6904","longitude":"-73.949","website":"http://www.nycgovparks.org/parks/B140/","nycParkId":"B140","location":"Macy Ave. bet. Lafayette Ave. and Kosciuszko St."},{"name":"City Line Park","latitude":"40.6795","longitude":"-73.8748","website":"http://www.nycgovparks.org/parks/B141/","nycParkId":"B141","location":"Atlantic Ave. bet. Fountain Ave. and N. Conduit Ave."},{"name":"Bedford Playground","latitude":"40.7083","longitude":"-73.9639","website":"http://www.nycgovparks.org/parks/B142/","nycParkId":"B142","location":"Bedford Ave. bet. S. 9 St. and Division Ave."},{"name":"Ocean Hill Playground","latitude":"40.6744","longitude":"-73.9122","website":"http://www.nycgovparks.org/parks/B144/","nycParkId":"B144","location":"Dean St., Bergen St. bet. Rockaway Ave.and Hopkinson Ave."},{"name":"Thomas Greene Playground","latitude":"40.6803","longitude":"-73.9854","website":"http://www.nycgovparks.org/parks/B145/","nycParkId":"B145","location":"Nevins St., 3 Ave., bet. De Graw St. and Douglas St. "},{"name":"Quaker Parrot Park at the Dust Bowl","latitude":40.63269065,"longitude":-74.01345406342016,"website":"http://www.nycgovparks.org/parks/B146/","nycParkId":"B146","location":"8 Ave. bet. 65 St. and 66 St. "},{"name":"Monsignor Crawford Field","latitude":40.6144444,"longitude":-73.9166667,"website":"http://www.nycgovparks.org/parks/B147/","nycParkId":"B147","location":"Ave. U bet. E. 58 St., E. 59 St., and E. 60 St."},{"name":"Rolph Henry Playground","latitude":"40.6558","longitude":"-73.9475","website":"http://www.nycgovparks.org/parks/B148/","nycParkId":"B148","location":"Clarkson Ave., New York Ave."},{"name":"Elton Playground","latitude":"40.666","longitude":"-73.8808","website":"http://www.nycgovparks.org/parks/B149A/","nycParkId":"B149A","location":"Elton St. bet. New Lots Ave. and Hegeman Ave."},{"name":"Linwood Playground","latitude":"40.6661","longitude":"-73.8804","website":"http://www.nycgovparks.org/parks/B149B/","nycParkId":"B149B","location":"Linwood St. bet. New Lots Ave. and Hegeman Ave."},{"name":"Kolbert Playground","latitude":"40.6203","longitude":"-73.958","website":"http://www.nycgovparks.org/parks/B150/","nycParkId":"B150","location":"Ave. L bet. E. 17 St. and E. 18 St."},{"name":"Dome Playground","latitude":"40.6382","longitude":"-73.9802","website":"http://www.nycgovparks.org/parks/B151/","nycParkId":"B151","location":"Dahill Rd. bet. 37 St. and 38 St."},{"name":"Rappaport Playground","latitude":"40.6369","longitude":"-74.0007","website":"http://www.nycgovparks.org/parks/B152/","nycParkId":"B152","location":"Ft. Hamilton Pkwy. bet. 52 St. and 53 St."},{"name":"South Pacific Playground","latitude":"40.6757","longitude":"-73.9203","website":"http://www.nycgovparks.org/parks/B153/","nycParkId":"B153","location":"Howard Ave. bet. Pacific St. and Dean St."},{"name":"Berry Playground","latitude":"40.7126","longitude":"-73.9635","website":"http://www.nycgovparks.org/parks/B154/","nycParkId":"B154","location":"S. 3 St. bet. Berry St. and Bedford Ave."},{"name":"Triangle","latitude":40.66877945,"longitude":-73.91858113810945,"website":"http://www.nycgovparks.org/parks/B155/","nycParkId":"B155","location":"New Lots Ave., Dumont Ave., Atkins Ave."},{"name":"Powell Playground","latitude":"40.6713","longitude":"-73.9048","website":"http://www.nycgovparks.org/parks/B156/","nycParkId":"B156","location":"Sackman To Powell Sts bet. Glenmore and Pit"},{"name":"Kelly Park Playground","latitude":"40.6043","longitude":"-73.9564","website":"http://www.nycgovparks.org/parks/B157/","nycParkId":"B157","location":"Ave. S, Morre Pl. bet. E. 16 St. and E. 17 St."},{"name":"Garibaldi Playground","latitude":"40.609","longitude":"-74.0001","website":"http://www.nycgovparks.org/parks/B158/","nycParkId":"B158","location":"18 Ave. bet. 83 St. and 82 St."},{"name":"Mount Prospect Park","latitude":"40.6721","longitude":"-73.966","website":"http://www.nycgovparks.org/parks/B159/","nycParkId":"B159","location":"Eastern Pkwy., Flatbush Ave. bet. Underhill Ave. and Washington Ave."},{"name":"Ketchum Triangle","latitude":40.6054913,"longitude":-73.982264141134,"website":"http://www.nycgovparks.org/parks/B160/","nycParkId":"B160","location":"Quentin Rd., Kings Hwy., W. 9 St."},{"name":"Ella Fitzgerald Playground","latitude":"40.6767","longitude":"-73.9657","website":"http://www.nycgovparks.org/parks/B161/","nycParkId":"B161","location":"Underhill Ave. bet. Prospect Pl. and Park Pl."},{"name":"Brizzi Playground","latitude":"40.6424","longitude":"-73.9947","website":"http://www.nycgovparks.org/parks/B162/","nycParkId":"B162","location":"10 Ave., New Utrecht Ave. bet. 43 St. and 42 St. "},{"name":"Sperandeo Brothers Playground","latitude":"40.6769","longitude":"-73.8844","website":"http://www.nycgovparks.org/parks/B163/","nycParkId":"B163","location":"Atlantic Ave., Cleveland St. and Liberty Ave."},{"name":"Bath Beach Park","latitude":"40.6025","longitude":"-74.0111","website":"http://www.nycgovparks.org/parks/B164/","nycParkId":"B164","location":"Shore Pkwy. bet. Bay 14 St. and Bay 16 St."},{"name":"Spring Creek Park","latitude":40.6624759,"longitude":-73.8586356,"website":"http://www.nycgovparks.org/parks/B165/","nycParkId":"B165","location":"Fountain Ave., 75 St. bet. Belt Pkwy., Flatlands Ave.,"},{"name":"Spring Creek Park","latitude":40.6624759,"longitude":-73.8586356,"website":"http://www.nycgovparks.org/parks/B165A/","nycParkId":"B165A","location":"Belt Pkwy., Fresh Creek, Seaview Ave."},{"name":"Belt Parkway/Shore Parkway","latitude":40.5827304,"longitude":-73.9749065,"website":"http://www.nycgovparks.org/parks/B166/","nycParkId":"B166","location":"Belt Pkwy. bet. Verrazano Bridge and Cross Bay Blvd."},{"name":"Homecrest Playground","latitude":"40.586","longitude":"-73.9573","website":"http://www.nycgovparks.org/parks/B166B/","nycParkId":"B166B","location":"Belt Pkwy., Williams Court  bet. E. 12 St. and Homecrest Ave"},{"name":"Coney Island Boat Basin","latitude":40.582932,"longitude":-73.989431,"website":"http://www.nycgovparks.org/parks/B166C/","nycParkId":"B166C","location":"W. 22 St. bet. Bay 56 St. and Shore Pkwy."},{"name":"McGuire Fields","latitude":"40.6202","longitude":"-73.899","website":"http://www.nycgovparks.org/parks/B166D/","nycParkId":"B166D","location":"Ave Y., Bergen Ave. bet. Ave. V and Belt Pkwy."},{"name":"Sixteen Lindens Triangle","latitude":40.58446495,"longitude":-73.9525179067827,"website":"http://www.nycgovparks.org/parks/B166E/","nycParkId":"B166E","location":"E. 16 St., Shore Pkwy., Bay Ct. "},{"name":"La Guardia Playground","latitude":"40.7105","longitude":"-73.9597","website":"http://www.nycgovparks.org/parks/B167/","nycParkId":"B167","location":"S. 4 St. bet. Roebling St. and Williamsburg Bridge Ramp"},{"name":"La Guardia Playground","latitude":"40.7099","longitude":"-73.9593","website":"http://www.nycgovparks.org/parks/B167A/","nycParkId":"B167A","location":"S. 5 St., Broadway, Havemeyer St."},{"name":"Continental Army Plaza","latitude":40.70887175,"longitude":-73.9589054375,"website":"http://www.nycgovparks.org/parks/B168/","nycParkId":"B168","location":"S. 4 St. bet. S. 5 Pl. and Roebling St."},{"name":"Coney Island Beach & Boardwalk","latitude":40.57235838539998,"longitude":-73.97945854482117,"website":"http://www.nycgovparks.org/parks/B169/","nycParkId":"B169","location":"Corbin Pl. to W. 37 St., Boardwalk"},{"name":"Brighton Playground","latitude":"40.5752","longitude":"-73.9654","website":"http://www.nycgovparks.org/parks/B169A/","nycParkId":"B169A","location":"Brighton 2 St. bet. Brightwater Ct. and Boardwalk E."},{"name":"Poseidon Playground","latitude":"40.5725","longitude":"-73.9921","website":"http://www.nycgovparks.org/parks/B169B/","nycParkId":"B169B","location":"Surf Ave. bet. W. 25 St. to W. 27 St., Boardwalk"},{"name":"Linden Sitting Area","latitude":40.653953,"longitude":-73.918472,"website":"http://www.nycgovparks.org/parks/B171/","nycParkId":"B171","location":"Linden Blvd., Church Ave., E. 92 St."},{"name":"Heffernan Triangle","latitude":40.646179,"longitude":-73.994805,"website":"http://www.nycgovparks.org/parks/B172/","nycParkId":"B172","location":"New Utrecht Ave., 9 Ave., 39 St."},{"name":"Fraser Square","latitude":40.61999555,"longitude":-73.94121279028771,"website":"http://www.nycgovparks.org/parks/B173/","nycParkId":"B173","location":"Kings Highway, Ave. M, E. 34 St. to E. 35 St."},{"name":"Park","latitude":40.6501038,"longitude":-73.9495823,"website":"http://www.nycgovparks.org/parks/B174/","nycParkId":"B174","location":"Willmohr St., E. 91 St., Linden Blvd."},{"name":"Dahill Triangle","latitude":40.612926200000004,"longitude":-73.97497652050995,"website":"http://www.nycgovparks.org/parks/B175/","nycParkId":"B175","location":"Dahill Rd., 24 Ave., 62 St."},{"name":"Trust Triangle","latitude":40.6163889,"longitude":-73.9269444,"website":"http://www.nycgovparks.org/parks/B176/","nycParkId":"B176","location":"Flatbush Ave., Schenctady Ave., Ave. O"},{"name":"Barone Triangle","latitude":40.62,"longitude":-73.9075,"website":"http://www.nycgovparks.org/parks/B190/","nycParkId":"B190","location":"Ave. U, E. 71 St., Veterans Ave."},{"name":"Russell Pedersen Playground","latitude":40.626388,"longitude":-74.036105,"website":"http://www.nycgovparks.org/parks/B192/","nycParkId":"B192","location":"Colonial Rd. from 83 St. to 85 St."},{"name":"Fort Hamilton Athletic Field","latitude":40.627236,"longitude":-74.0397375,"website":"http://www.nycgovparks.org/parks/B192A/","nycParkId":"B192A","location":"83 St. to 85 St. bet. Colonial Rd. and Narrows Ave."},{"name":"Hamilton Metz Field","latitude":"40.6626","longitude":"-73.9409","website":"http://www.nycgovparks.org/parks/B193/","nycParkId":"B193","location":"Albany Ave., E. New York Ave., Lefferts Ave."},{"name":"Harmony Triangle","latitude":40.7032804,"longitude":-73.9503853,"website":"http://www.nycgovparks.org/parks/B194/","nycParkId":"B194","location":"Middleton St., Harrison Ave., Union Ave."},{"name":"Pvt. Sonsire Triangle","latitude":40.7185679,"longitude":-73.95251713369873,"website":"http://www.nycgovparks.org/parks/B196/","nycParkId":"B196","location":"Union Ave., N. 11 St. and Roebling St."},{"name":"Mellett Playground","latitude":"40.597","longitude":"-73.9575","website":"http://www.nycgovparks.org/parks/B197/","nycParkId":"B197","location":"Avenue V bet. E. 13 St. and E. 14 St."},{"name":"Elizabeth Stroud Playground","latitude":40.679681,"longitude":-73.931136,"website":"http://www.nycgovparks.org/parks/B200/","nycParkId":"B200","location":"Stuyvesant Ave. and Fulton St."},{"name":"Lithuania Square","latitude":40.7088836,"longitude":-73.950893,"website":"http://www.nycgovparks.org/parks/B202/","nycParkId":"B202","location":"Stagg St., Hewes St., Union Ave."},{"name":"Corporal Wiltshire Square","latitude":40.61082225,"longitude":-73.95333130252891,"website":"http://www.nycgovparks.org/parks/B205/","nycParkId":"B205","location":"Ave. P, Kings Hwy., Ocean Ave."},{"name":"Sunners Playground","latitude":"40.6325","longitude":"-73.9297","website":"http://www.nycgovparks.org/parks/B206/","nycParkId":"B206","location":"Avenue H bet. Kings Hwy. and E. 49 St."},{"name":"Sarsfield Playground","latitude":"40.6202","longitude":"-73.9375","website":"http://www.nycgovparks.org/parks/B207/","nycParkId":"B207","location":"E. 38 St., Ave. M, Flatlands Ave."},{"name":"Pfc Norton Playground","latitude":"40.6146","longitude":"-73.9449","website":"http://www.nycgovparks.org/parks/B208/","nycParkId":"B208","location":"Nostrand Ave. bet. Kings Hwy. and Ave. P"},{"name":"Galapo Playground","latitude":"40.598","longitude":"-73.9468","website":"http://www.nycgovparks.org/parks/B209/","nycParkId":"B209","location":"Bedford Ave., Gravesend Neck Rd., Ave. V, E. 24 St. "},{"name":"John Allen Payne Playground","latitude":40.639859,"longitude":-74.02379,"website":"http://www.nycgovparks.org/parks/B210A/","nycParkId":"B210A","location":"3 Ave. bet. 64 St. and 65 St."},{"name":"D'Emic Playground","latitude":"40.656","longitude":"-74.0049","website":"http://www.nycgovparks.org/parks/B210B/","nycParkId":"B210B","location":"3 Ave. bet. 35 St. and 34 St. "},{"name":"Cough Triangle","latitude":40.6730776,"longitude":-74.000257,"website":"http://www.nycgovparks.org/parks/B210C/","nycParkId":"B210C","location":"Hamilton Ave., Court St. Garnet St."},{"name":"Admiral Triangle","latitude":"40.6769","longitude":"-74.0011","website":"http://www.nycgovparks.org/parks/B210F/","nycParkId":"B210F","location":"Hamilton Ave., Nelson St. Clinton St."},{"name":"Triangle Three Sixteen","latitude":40.66788619492248,"longitude":-73.99492184653865,"website":"http://www.nycgovparks.org/parks/B210G/","nycParkId":"B210G","location":"3 Ave. bet. Hamilton Ave. and 16 St."},{"name":"Harold Ickes Playground","latitude":"40.6825","longitude":"-74.0059","website":"http://www.nycgovparks.org/parks/B210H/","nycParkId":"B210H","location":"Hamitlon Ave. ber. Van Brunt St. and Woodull St."},{"name":"Gonzalo Plasencia Playground","latitude":40.652829,"longitude":-74.008349,"website":"http://www.nycgovparks.org/parks/B210I/","nycParkId":"B210I","location":"3 Ave. bet. 40 St. and 41 St."},{"name":"Pena Herrera Playground","latitude":"40.6494","longitude":"-74.0121","website":"http://www.nycgovparks.org/parks/B210J/","nycParkId":"B210J","location":"3 Ave. bet. 47 St. and 46 St."},{"name":"Dan Ross Playground","latitude":"40.6228","longitude":"-74.0216","website":"http://www.nycgovparks.org/parks/B210P/","nycParkId":"B210P","location":"7 Ave. bet. 81 St. and 82 St."},{"name":"John J Carty Park","latitude":"40.6133","longitude":"-74.0302","website":"http://www.nycgovparks.org/parks/B210W/","nycParkId":"B210W","location":"Ft. Hamilton Pkwy. bet. 94 St. and 101 St."},{"name":"Lady Moody Triangle","latitude":40.5967245,"longitude":-73.9744257587037,"website":"http://www.nycgovparks.org/parks/B211/","nycParkId":"B211","location":"Village Rd. N., Ave. U bet. Van Sicklen St. and Lake St."},{"name":"Hot Spot Tot Lot","latitude":"40.631","longitude":"-73.9566","website":"http://www.nycgovparks.org/parks/B212/","nycParkId":"B212","location":"Campus Rd. bet. E. 21 St. and Ocean Ave."},{"name":"Gravesend Triangle","latitude":40.59504485,"longitude":-73.96934772522101,"website":"http://www.nycgovparks.org/parks/B213/","nycParkId":"B213","location":"Gravesend Neck Rd., E. 2 St., Ave. V"},{"name":"Linden Park","latitude":"40.6587","longitude":"-73.8867","website":"http://www.nycgovparks.org/parks/B214/","nycParkId":"B214","location":"Vermont St. bet. Linden Blvd. and Stanley Ave."},{"name":"Decatur Playground","latitude":"40.6815","longitude":"-73.9365","website":"http://www.nycgovparks.org/parks/B215/","nycParkId":"B215","location":"Decatur St., Macdonough St. bet. Lewis Ave. and Marcus Garvey Blvd."},{"name":"Raymond Bush Playground","latitude":"40.6864","longitude":"-73.9396","website":"http://www.nycgovparks.org/parks/B216/","nycParkId":"B216","location":"Marcus Garvey Blvd. bet. Monore St. and Madison St."},{"name":"Marcy Playground","latitude":"40.6956","longitude":"-73.9509","website":"http://www.nycgovparks.org/parks/B217/","nycParkId":"B217","location":"Myrtle Ave. bet. Nostrand Ave. and Marcy Ave."},{"name":"Paerdegat Park","latitude":"40.6381","longitude":"-73.9381","website":"http://www.nycgovparks.org/parks/B218/","nycParkId":"B218","location":"Albany Ave., E. 40 St. bet. Farragut Rd. and Foster Ave."},{"name":"Callahan-Kelly Playground","latitude":"40.6783","longitude":"-73.9048","website":"http://www.nycgovparks.org/parks/B219/","nycParkId":"B219","location":"Fulton St., Truxton St., bet. Eastern Pkwy. and Van Sinderen Ave."},{"name":"Washington Hall Park","latitude":"40.6953","longitude":"-73.9668","website":"http://www.nycgovparks.org/parks/B220/","nycParkId":"B220","location":"Park Ave. bet. Washington Ave. and Hall St."},{"name":"Steuben Playground","latitude":"40.6974","longitude":"-73.9634","website":"http://www.nycgovparks.org/parks/B221/","nycParkId":"B221","location":"Flushing Ave., Steuben St., Williamsburg Pl."},{"name":"Pierrepont Playground","latitude":"40.6962","longitude":"-73.9976","website":"http://www.nycgovparks.org/parks/B222/","nycParkId":"B222","location":"bet. Pierrepont Pl., Pierrepont St. and the BQE"},{"name":"Dimattina Playground","latitude":"40.68","longitude":"-74.0027","website":"http://www.nycgovparks.org/parks/B223A/","nycParkId":"B223A","location":"Rapelye St., Hicks St., Coles St."},{"name":"Dimattina Playground","latitude":"40.6808","longitude":"-74.0021","website":"http://www.nycgovparks.org/parks/B223B/","nycParkId":"B223B","location":"Hicks St. bet. Woodhull St. and Rapelye St."},{"name":"Adam Yauch Park","latitude":null,"longitude":null,"website":"http://www.nycgovparks.org/parks/B223DA/","nycParkId":"B223DA","location":"Atlantic Ave., Columbia Pl., State St."},{"name":"Brooklyn Heights Promenade","latitude":40.6973713,"longitude":-73.99738714716594,"website":"http://www.nycgovparks.org/parks/B223DB/","nycParkId":"B223DB","location":"BQE bet. Joralemon St. and Grace Ct."},{"name":"Brooklyn Heights Promenade","latitude":40.6973713,"longitude":-73.99738714716594,"website":"http://www.nycgovparks.org/parks/B223DC/","nycParkId":"B223DC","location":"BQE bet. Remsen St. and Grace Ct."},{"name":"Brooklyn Heights Promenade","latitude":40.6973713,"longitude":-73.99738714716594,"website":"http://www.nycgovparks.org/parks/B223DD/","nycParkId":"B223DD","location":"BQE bet. Remsen St. and Montague St."},{"name":"Brooklyn Heights Promenade","latitude":40.700408381578946,"longitude":-73.9952177236842,"website":"http://www.nycgovparks.org/parks/B223DE/","nycParkId":"B223DE","location":"Montague St. bet. Montague Ter. and BQE"},{"name":"Brooklyn Heights Promenade","latitude":40.700408381578946,"longitude":-73.9952177236842,"website":"http://www.nycgovparks.org/parks/B223DF/","nycParkId":"B223DF","location":"BQE at Montague St."},{"name":"Brooklyn Heights Promenade","latitude":40.700408381578946,"longitude":-73.9952177236842,"website":"http://www.nycgovparks.org/parks/B223DG/","nycParkId":"B223DG","location":"BQE bet. Clark St. and Pierrepoint St."},{"name":"Brooklyn Heights Promenade","latitude":40.700408381578946,"longitude":-73.9952177236842,"website":"http://www.nycgovparks.org/parks/B223DH/","nycParkId":"B223DH","location":"BQE bet. Clark St. and Pineapple St."},{"name":"Brooklyn Heights Promenade","latitude":40.700408381578946,"longitude":-73.9952177236842,"website":"http://www.nycgovparks.org/parks/B223DI/","nycParkId":"B223DI","location":"Pineapple St. bet. Columbia Heights and the BQE"},{"name":"Brooklyn Heights Promenade","latitude":40.700408381578946,"longitude":-73.9952177236842,"website":"http://www.nycgovparks.org/parks/B223DJ/","nycParkId":"B223DJ","location":"BQE bet. Pineapple St. and Orange St."},{"name":"Brooklyn Heights Promenade","latitude":40.6973713,"longitude":-73.99738714716594,"website":"http://www.nycgovparks.org/parks/B223DK/","nycParkId":"B223DK","location":"BQE over-hang bet. Remsen St. and Orange St."},{"name":"Fruit Street Sitting Area","latitude":40.700408381578946,"longitude":-73.9952177236842,"website":"http://www.nycgovparks.org/parks/B223E/","nycParkId":"B223E","location":"Columbia Heights and Orange St. To Cranberry St."},{"name":"Squibb Park","latitude":40.700408381578946,"longitude":-73.9952177236842,"website":"http://www.nycgovparks.org/parks/B223F/","nycParkId":"B223F","location":"Middagh St. between Columbia Heights & Furman St."},{"name":"Hillside Dog Park","latitude":40.70179941666667,"longitude":-73.99448070833333,"website":"http://www.nycgovparks.org/parks/B223G/","nycParkId":"B223G","location":"Columbia Hts., Hicks St., bet. Middagh St. and Vine St."},{"name":"Harry Chapin Playground","latitude":"40.7007","longitude":"-73.9949","website":"http://www.nycgovparks.org/parks/B223H/","nycParkId":"B223H","location":"Columbia Hts. at Middagh St."},{"name":"Anchorage Plaza","latitude":40.7007775,"longitude":-73.9908805,"website":"http://www.nycgovparks.org/parks/B223I/","nycParkId":"B223I","location":"Fulton St., York St., Washington St. and  Prospect St.; Brooklyn Bridge"},{"name":"Clumber Corner","latitude":40.7008474,"longitude":-73.98918962654346,"website":"http://www.nycgovparks.org/parks/B223IA/","nycParkId":"B223IA","location":"BQE, Prospect St. bet. Washington St. and Adams St."},{"name":"Bar and Grill Park","latitude":40.7014303,"longitude":-73.98810211625351,"website":"http://www.nycgovparks.org/parks/B223IB/","nycParkId":"B223IB","location":"York St., through BQE bet. Adams St. and Pearl St."},{"name":"Park","latitude":40.6501038,"longitude":-73.9495823,"website":"http://www.nycgovparks.org/parks/B223IC/","nycParkId":"B223IC","location":"Pearl St. at York St. and Manh. Bridge"},{"name":"Park","latitude":40.6501038,"longitude":-73.9495823,"website":"http://www.nycgovparks.org/parks/B223JA/","nycParkId":"B223JA","location":"Jay St. bet. York St. and Prospect St."},{"name":"Bridge Park","latitude":40.7008898,"longitude":-73.9849116,"website":"http://www.nycgovparks.org/parks/B223JB/","nycParkId":"B223JB","location":"Prospect St., York St. bet. Jay St. and Bridge St."},{"name":"Bridge Park 3","latitude":40.7007775,"longitude":-73.9908805,"website":"http://www.nycgovparks.org/parks/B223JC/","nycParkId":"B223JC","location":"Sands St., Prospect St. bet. Bridge St. and Manh. Bridge"},{"name":"Trinity Park","latitude":40.69986864285714,"longitude":-73.98340628571428,"website":"http://www.nycgovparks.org/parks/B223K/","nycParkId":"B223K","location":"Nassau St., Sands St. bet. Manh. Bridge and Gold St."},{"name":"Arbor Place","latitude":40.69602115,"longitude":-73.98061865771821,"website":"http://www.nycgovparks.org/parks/B223MA/","nycParkId":"B223MA","location":"Tillary St., Park Ave., Navy St."},{"name":"Classon Playground","latitude":40.689434750000004,"longitude":-73.96059266924445,"website":"http://www.nycgovparks.org/parks/B223NA/","nycParkId":"B223NA","location":"Flushing Ave, Williamsburg Pl, Classon & Kent Aves"},{"name":"Classon Triangle","latitude":40.699311550000004,"longitude":-73.96102653011812,"website":"http://www.nycgovparks.org/parks/B223NB/","nycParkId":"B223NB","location":"Kent Ave., Classon Ave., Wallabout St."},{"name":"Penn Triangle","latitude":40.700689749999995,"longitude":-73.96090776541897,"website":"http://www.nycgovparks.org/parks/B223NC/","nycParkId":"B223NC","location":"Penn St., Wythe Ave., Williamsburg St. E."},{"name":"Park","latitude":40.6501038,"longitude":-73.9495823,"website":"http://www.nycgovparks.org/parks/B223OA/","nycParkId":"B223OA","location":"Keap St., Bedford Ave., Williamsburg St. W."},{"name":"Marcy Park South","latitude":40.707359125,"longitude":-73.958679125,"website":"http://www.nycgovparks.org/parks/B223OB/","nycParkId":"B223OB","location":"Marcy Ave. bet. S. 9 St. and Division St."},{"name":"Rodney Park South","latitude":40.670847,"longitude":-73.988302,"website":"http://www.nycgovparks.org/parks/B223OC/","nycParkId":"B223OC","location":"Division Ave., Rodney St., S. 9 St."},{"name":"Rodney Park Center","latitude":40.708946050987265,"longitude":-73.95673286186407,"website":"http://www.nycgovparks.org/parks/B223PA/","nycParkId":"B223PA","location":"Broadway, Rodney St., S. 5 St."},{"name":"Rodney Park North","latitude":40.70793,"longitude":-73.956655,"website":"http://www.nycgovparks.org/parks/B223PB/","nycParkId":"B223PB","location":"Rodney St., S. 4 St. and S. 5 St."},{"name":"Rodney Playground South","latitude":40.7102493299321,"longitude":-73.95597194651859,"website":"http://www.nycgovparks.org/parks/B223PC/","nycParkId":"B223PC","location":"Rodney St., S. 3 St. and S. 4 St."},{"name":"Rodney Playground Center","latitude":40.71015704166667,"longitude":-73.95548766666667,"website":"http://www.nycgovparks.org/parks/B223PD/","nycParkId":"B223PD","location":"Rodney St., S. 3 St., Borniquen Pl."},{"name":"Rodney Playground North","latitude":40.710352375,"longitude":-73.955365,"website":"http://www.nycgovparks.org/parks/B223PE/","nycParkId":"B223PE","location":"Borinquen Pl., Rodney St. and S. 1 St."},{"name":"Marcy Green South","latitude":40.70714132653061,"longitude":-73.95807926530613,"website":"http://www.nycgovparks.org/parks/B223QA/","nycParkId":"B223QA","location":"Broadway, Marcy Ave. and S. 5 St."},{"name":"Marcy Green Center","latitude":40.70715726530612,"longitude":-73.95809565306122,"website":"http://www.nycgovparks.org/parks/B223QB/","nycParkId":"B223QB","location":"Marcy Ave., S. 4 St. and S. 5 St."},{"name":"Marcy Green North","latitude":40.71093835714286,"longitude":-73.9564235357143,"website":"http://www.nycgovparks.org/parks/B223QC/","nycParkId":"B223QC","location":"Marcy Ave., S. 3 St. and S. 4 St."},{"name":"Jaime Campiz Playground","latitude":"40.7136","longitude":"-73.9543","website":"http://www.nycgovparks.org/parks/B223R/","nycParkId":"B223R","location":"Hope St., Marcy Ave., Metropolitan Ave."},{"name":"Macri Triangle","latitude":40.7144884,"longitude":-73.95203980591194,"website":"http://www.nycgovparks.org/parks/B223S/","nycParkId":"B223S","location":"Metropolitan, Union, Meeker Avs"},{"name":"Father Giorgio Triangle","latitude":40.7161111,"longitude":-73.95,"website":"http://www.nycgovparks.org/parks/B223T/","nycParkId":"B223T","location":"Jackson St., Lorimer St., Meeker Ave."},{"name":"Lentol Garden","latitude":40.72039109523809,"longitude":-73.94546780952382,"website":"http://www.nycgovparks.org/parks/B223U/","nycParkId":"B223U","location":"Graham Ave., Meeker Ave., Humbolt St., BQE"},{"name":"Badame Sessa Triangle","latitude":40.717234,"longitude":-73.948351,"website":"http://www.nycgovparks.org/parks/B223V/","nycParkId":"B223V","location":"Leonard St., Withers St., Meeker Ave."},{"name":"P.O. Reinaldo Salgado Playground","latitude":40.68793,"longitude":-73.925928,"website":"http://www.nycgovparks.org/parks/B224/","nycParkId":"B224","location":"Monroe St. to Madison St. between Patchen Ave. and Ralph Ave."},{"name":"St. Andrew's Playground","latitude":"40.6787","longitude":"-73.9422","website":"http://www.nycgovparks.org/parks/B225/","nycParkId":"B225","location":"Atlantic Ave., Herkimer St., Kingston Ave., St Andrew's Pl."},{"name":"Mt. Carmel Triangle","latitude":40.71615701926817,"longitude":-73.95164701582574,"website":"http://www.nycgovparks.org/parks/B226/","nycParkId":"B226","location":"Union Ave., Meeker Ave., Jackson St."},{"name":"P.S. 125 Playground","latitude":"40.6651","longitude":"-73.9091","website":"http://www.nycgovparks.org/parks/B227/","nycParkId":"B227","location":"Rockaway Ave. bet. Blake Ave. and Dumont Ave."},{"name":"Dr. Green Playground","latitude":"40.6672","longitude":"-73.9068","website":"http://www.nycgovparks.org/parks/B228/","nycParkId":"B228","location":"Mother Gaston Blvd. and Sutter Ave."},{"name":"Triangle","latitude":40.66877945,"longitude":-73.91858113810945,"website":"http://www.nycgovparks.org/parks/B229/","nycParkId":"B229","location":"Ralph Ave., Ave. T and E. 61 St."},{"name":"Nicholas Naquan Heyward Jr. Park","latitude":"40.6846","longitude":"-73.9879","website":"http://www.nycgovparks.org/parks/B230/","nycParkId":"B230","location":"Wyckoff St. between Hoyt St. and Bond St."},{"name":"Samuel Goldberg Triangle","latitude":40.6110883,"longitude":-73.97724050250233,"website":"http://www.nycgovparks.org/parks/B231/","nycParkId":"B231","location":"65 St., Ave. O, W. 3 St."},{"name":"Dean Playground","latitude":"40.6809","longitude":"-73.9732","website":"http://www.nycgovparks.org/parks/B232/","nycParkId":"B232","location":"Dean St. to Bergen St. between 6 Ave. and Carlton Ave."},{"name":"Park","latitude":40.6501038,"longitude":-73.9495823,"website":"http://www.nycgovparks.org/parks/B233/","nycParkId":"B233","location":"Concord St, Nassau St & Flatbush Ave Ext"},{"name":"Tilden Playground","latitude":"40.6476","longitude":"-73.9314","website":"http://www.nycgovparks.org/parks/B234/","nycParkId":"B234","location":"Tilden Ave. between E. 48 St. and E. 49 St."},{"name":"Herman Dolgon Playground","latitude":"40.598","longitude":"-73.94","website":"http://www.nycgovparks.org/parks/B235/","nycParkId":"B235","location":"Ave. V between Nostrand Ave. and Batchelder St."},{"name":"Glenwood Playground","latitude":"40.6367","longitude":"-73.9199","website":"http://www.nycgovparks.org/parks/B236/","nycParkId":"B236","location":"Ralph Ave. and Farragut Rd."},{"name":"John Hancock Playground","latitude":"40.6824","longitude":"-73.9547","website":"http://www.nycgovparks.org/parks/B237/","nycParkId":"B237","location":"Bedford Ave., Hancock St., Jefferson Ave."},{"name":"Sheepshead Playground","latitude":"40.589","longitude":"-73.9402","website":"http://www.nycgovparks.org/parks/B239/","nycParkId":"B239","location":"Ave. Z between Nostrand Ave. and E. 29 St."},{"name":"Tucker Place","latitude":40.5834465,"longitude":-73.94137353884385,"website":"http://www.nycgovparks.org/parks/B240/","nycParkId":"B240","location":"E. 27 St. and Emmons Ave."},{"name":"Meucci Triangle","latitude":40.59570994847703,"longitude":-73.9831492619175,"website":"http://www.nycgovparks.org/parks/B242/","nycParkId":"B242","location":"Ave U, 86 St.  and W. 12 St."},{"name":"Golconda Playground","latitude":"40.6977","longitude":"-73.9823","website":"http://www.nycgovparks.org/parks/B243/","nycParkId":"B243","location":"Gold St. between Nassau St. and Concord St."},{"name":"McDonald Playground","latitude":"40.6006","longitude":"-73.972","website":"http://www.nycgovparks.org/parks/B244/","nycParkId":"B244","location":"Mcdonald Ave. between Ave. S and Ave. T"},{"name":"St. John's Park","latitude":"40.6744","longitude":"-73.9348","website":"http://www.nycgovparks.org/parks/B245/","nycParkId":"B245","location":"Troy Ave., Bergen St., Prospect Pl., Schenectady Ave."},{"name":"Jerome Playground","latitude":"40.659","longitude":"-73.8795","website":"http://www.nycgovparks.org/parks/B246/","nycParkId":"B246","location":"Wortman Ave. between Jerome St. and Warwick St."},{"name":"Breukelen Ballfields","latitude":"40.654","longitude":"-73.8936","website":"http://www.nycgovparks.org/parks/B247/","nycParkId":"B247","location":"Louisiana Ave., Stanley Ave., Flatlands Ave., Williams Ave."},{"name":"Fox Playground","latitude":"40.6323","longitude":"-73.9239","website":"http://www.nycgovparks.org/parks/B248/","nycParkId":"B248","location":"Ave. H between E. 54 St. to E. 55 St."},{"name":"Van Dyke Playground","latitude":"40.6644","longitude":"-73.904","website":"http://www.nycgovparks.org/parks/B249/","nycParkId":"B249","location":"Dumont Ave. between Powell St. and Mother Gaston Blvd."},{"name":"Nostrand Playground","latitude":"40.6381","longitude":"-73.9473","website":"http://www.nycgovparks.org/parks/B250/","nycParkId":"B250","location":"Nostrand Ave. between Foster Ave. and Farragut Pl."},{"name":"Manhattan Beach Park","latitude":"40.5769","longitude":"-73.9465","website":"http://www.nycgovparks.org/parks/B251/","nycParkId":"B251","location":"Oriental Blvd. between Ocean Ave. and Mackenzie St."},{"name":"West Playground","latitude":"40.5869","longitude":"-73.9701","website":"http://www.nycgovparks.org/parks/B252/","nycParkId":"B252","location":"Ave. Z between W. 1 St. and West St."},{"name":"Albert J. Parham Playground","latitude":40.690355,"longitude":-73.970863,"website":"http://www.nycgovparks.org/parks/B253/","nycParkId":"B253","location":"Adelphi St., Clermont Ave., Dekalb Ave., Willoughby Ave."},{"name":"Wingate Park","latitude":"40.6586","longitude":"-73.9443","website":"http://www.nycgovparks.org/parks/B254/","nycParkId":"B254","location":"Winthrop St., Brooklyn Ave., Rutland Rd."},{"name":"Purple Playground","latitude":"40.663","longitude":"-73.9897","website":"http://www.nycgovparks.org/parks/B255C/","nycParkId":"B255C","location":"17 St. bet. 5 Ave. and 6 Ave."},{"name":"Park","latitude":40.6501038,"longitude":-73.9495823,"website":"http://www.nycgovparks.org/parks/B255D/","nycParkId":"B255D","location":"Prospect Ave., 6 Ave., Prospect Exwy."},{"name":"Park","latitude":40.6501038,"longitude":-73.9495823,"website":"http://www.nycgovparks.org/parks/B255E/","nycParkId":"B255E","location":"S/B Prospect Exwy. bet. 6 Ave., 7 Ave., and 18 St."},{"name":"Detective Joseph Mayrose Park","latitude":40.66154405,"longitude":-73.98783294287733,"website":"http://www.nycgovparks.org/parks/B255F/","nycParkId":"B255F","location":"N/B Prospect Exwy., 17 St., bet. 6 Ave. and 7 Ave."},{"name":"Butterfly Gardens","latitude":40.660172700000004,"longitude":-73.98641570154098,"website":"http://www.nycgovparks.org/parks/B255G/","nycParkId":"B255G","location":"7 Ave. bet. 18 St. and 17 St."},{"name":"Thomas J. Cuite Park","latitude":40.654266,"longitude":-73.978734,"website":"http://www.nycgovparks.org/parks/B255H/","nycParkId":"B255H","location":"19 St. bet. 11 Ave. and Seeley St."},{"name":"Park","latitude":40.6501038,"longitude":-73.9495823,"website":"http://www.nycgovparks.org/parks/B255I/","nycParkId":"B255I","location":"18 St. bet. 11 Ave. and Seeley St."},{"name":"Seeley Park","latitude":40.65339975,"longitude":-73.9779111562318,"website":"http://www.nycgovparks.org/parks/B255J/","nycParkId":"B255J","location":"S/B Prospect Exwy. bet. Seeley St. and Vanderbilt St."},{"name":"Sitting Area","latitude":40.699951,"longitude":-73.9956758,"website":"http://www.nycgovparks.org/parks/B255K/","nycParkId":"B255K","location":"N/B Prospect Exwy. bet. Seeley St. and Greenwood Ave."},{"name":"Captain John McKenna, IV Park","latitude":40.65259,"longitude":-73.977554,"website":"http://www.nycgovparks.org/parks/B255L/","nycParkId":"B255L","location":"Vanderbilt St. bet. E. 4 St. and E. 5 St."},{"name":"Park","latitude":40.651567126984126,"longitude":-73.97401042857143,"website":"http://www.nycgovparks.org/parks/B255M/","nycParkId":"B255M","location":"Sherman St. at Ocean Pkwy."},{"name":"Brooklyn Academy Of Music","latitude":40.686504,"longitude":-73.977728,"website":"http://www.nycgovparks.org/parks/B256/","nycParkId":"B256","location":"Lafayette Ave between St Felix St. and Ashland Pl."},{"name":"Frost Playground","latitude":"40.7187","longitude":"-73.939","website":"http://www.nycgovparks.org/parks/B257/","nycParkId":"B257","location":"Frost St. bet. Debevoise Ave. and Kingsland Ave."},{"name":"Brevoort Playground","latitude":"40.6805","longitude":"-73.9227","website":"http://www.nycgovparks.org/parks/B258/","nycParkId":"B258","location":"Ralph Ave. bet. Chauncey St. and Sumpter St."},{"name":"Underwood Park","latitude":"40.6886","longitude":"-73.9664","website":"http://www.nycgovparks.org/parks/B259/","nycParkId":"B259","location":"Lafayette Ave. bet. Waverly Ave. and Washington Ave."},{"name":"Howard Playground","latitude":"40.6717","longitude":"-73.9082","website":"http://www.nycgovparks.org/parks/B260/","nycParkId":"B260","location":"Mother Gaston Blvd. and Glenmore Ave."},{"name":"Howard Pool","latitude":40.6721356,"longitude":-73.910243,"website":"http://www.nycgovparks.org/parks/B260A/","nycParkId":"B260A","location":"E. New York Ave. between Mother Gaston Blvd. and St. Mark's Ave."},{"name":"Sankofa Park","latitude":"40.6656","longitude":"-73.8862","website":"http://www.nycgovparks.org/parks/B261/","nycParkId":"B261","location":"Livonia Ave. between Barbey St. and Schenck Ave."},{"name":"Potomac Playground","latitude":"40.682","longitude":"-73.9446","website":"http://www.nycgovparks.org/parks/B262/","nycParkId":"B262","location":"Tompkins Ave. between Halsey St. and Macon St."},{"name":"Sumner Playground","latitude":"40.6972","longitude":"-73.9428","website":"http://www.nycgovparks.org/parks/B263/","nycParkId":"B263","location":"Throop Ave. between Myrtle Ave. and Park Ave."},{"name":"Roebling Playground","latitude":"40.7063","longitude":"-73.9618","website":"http://www.nycgovparks.org/parks/B264/","nycParkId":"B264","location":"Lee Ave. between Wilson St. and Taylor St."},{"name":"Rainbow Playground","latitude":"40.6406","longitude":"-74.0111","website":"http://www.nycgovparks.org/parks/B265/","nycParkId":"B265","location":"6 Ave. bet. 55 St. and 56 St."},{"name":"Star Spangled Playground","latitude":"40.6919","longitude":"-73.958","website":"http://www.nycgovparks.org/parks/B266/","nycParkId":"B266","location":"Franklin Ave. between Willoughby Ave. and Dekalb Ave."},{"name":"Winthrop Playground","latitude":"40.6104","longitude":"-73.9436","website":"http://www.nycgovparks.org/parks/B267/","nycParkId":"B267","location":"Winthrop St. between Rogers Ave. and Bedford Ave."},{"name":"Nautilus Playground","latitude":"40.5717","longitude":"-73.9963","website":"http://www.nycgovparks.org/parks/B268/","nycParkId":"B268","location":"Public Beach, W. 29 St. and W. 32 St."},{"name":"Jesse Owens Playground","latitude":"40.6914","longitude":"-73.9325","website":"http://www.nycgovparks.org/parks/B269/","nycParkId":"B269","location":"Lafayette Ave. bet. Stuyvesant Ave. and Malcom X Blvd."},{"name":"Brownsville Playground","latitude":"40.6567","longitude":"-73.9017","website":"http://www.nycgovparks.org/parks/B270/","nycParkId":"B270","location":"Hegeman Ave., Linden Blvd. bet. Powell St. and Mother Gaston Blvd."},{"name":"Railroad Playground","latitude":"40.6494","longitude":"-73.9143","website":"http://www.nycgovparks.org/parks/B271/","nycParkId":"B271","location":"Ditmas Ave. bet. E. 92 St. and E. 91 St."},{"name":"Marlboro Playground","latitude":"40.5912","longitude":"-73.9809","website":"http://www.nycgovparks.org/parks/B272/","nycParkId":"B272","location":"W. 11 St. at Ave. W"},{"name":"Aimee Triangle","latitude":40.6127778,"longitude":-73.9441667,"website":"http://www.nycgovparks.org/parks/B273/","nycParkId":"B273","location":"Ave. P, Madison Pl., Nostrand Ave."},{"name":"Bayview Playground","latitude":"40.6349","longitude":"-73.8869","website":"http://www.nycgovparks.org/parks/B274/","nycParkId":"B274","location":"Seaview Ave. between E. 99 St. and E. 101 St."},{"name":"Grady Playground","latitude":"40.5831","longitude":"-73.9648","website":"http://www.nycgovparks.org/parks/B275/","nycParkId":"B275","location":"Shore Pkwy., Brighton 3 St., Brighton 4 St."},{"name":"J W Person Square","latitude":40.69338,"longitude":-73.973034,"website":"http://www.nycgovparks.org/parks/B276/","nycParkId":"B276","location":"Carlton Ave & Myrtle Ave"},{"name":"Benson Playground","latitude":"40.6024","longitude":"-74.0022","website":"http://www.nycgovparks.org/parks/B277/","nycParkId":"B277","location":"Bath Ave. between Bay 22 St. and Bay 23 St."},{"name":"Sam Leggio Triangle","latitude":40.68446076744186,"longitude":-73.88183095348838,"website":"http://www.nycgovparks.org/parks/B278/","nycParkId":"B278","location":"Highland Pl. at Etna St., Forcetube Ave."},{"name":"Wilson Playground","latitude":"40.6426","longitude":"-73.8948","website":"http://www.nycgovparks.org/parks/B279/","nycParkId":"B279","location":"Ave. K between E. 100 St. and E. 101 St."},{"name":"Nellie Bly Park","latitude":40.5834023,"longitude":-73.9671904,"website":"http://www.nycgovparks.org/parks/B280/","nycParkId":"B280","location":"S/s Shore Pkwy between 25 Ave. and Bay 41 St."},{"name":"Patrick O'Rourke Playground","latitude":40.619188,"longitude":-74.014535,"website":"http://www.nycgovparks.org/parks/B282/","nycParkId":"B282","location":"80 St. To 81 St., 11 Ave. To 12 Ave."},{"name":"Belmont Playground","latitude":"40.6757","longitude":"-73.8629","website":"http://www.nycgovparks.org/parks/B283/","nycParkId":"B283","location":"Belmont Ave. between Forbell St. and Drew St."},{"name":"Marc And Jason's Playground","latitude":"40.6635","longitude":"-73.9495","website":"http://www.nycgovparks.org/parks/B284/","nycParkId":"B284","location":"Sterling St., Empire Blvd., New York Ave., Nostrand Ave."},{"name":"Harry Maze Playground","latitude":"40.6434","longitude":"-73.9232","website":"http://www.nycgovparks.org/parks/B285/","nycParkId":"B285","location":"Ave. D, Ditmas Ave. bet. E. 56 St. and E. 57 St."},{"name":"Bartlett Playground","latitude":"40.7009","longitude":"-73.946","website":"http://www.nycgovparks.org/parks/B286/","nycParkId":"B286","location":"Whipple St., Bartlett St., between Throop Ave. and Flushing Ave."},{"name":"Andries Playground","latitude":"40.6228","longitude":"-73.9464","website":"http://www.nycgovparks.org/parks/B287/","nycParkId":"B287","location":"Nostrand Ave. between Ave. L and Ave. K"},{"name":"Slope Park Playground","latitude":"40.6612","longitude":"-73.9895","website":"http://www.nycgovparks.org/parks/B288/","nycParkId":"B288","location":"6 Ave. between 18 St. and 19 St."},{"name":"Cutinella Triangle","latitude":40.5918175,"longitude":-73.97680787472842,"website":"http://www.nycgovparks.org/parks/B289/","nycParkId":"B289","location":"Ave. W, W. 6 St. and 86 St."},{"name":"Public Place","latitude":40.678839,"longitude":-73.865508,"website":"http://www.nycgovparks.org/parks/B290/","nycParkId":"B290","location":"Eldert La. between Liberty Ave. and Glenmore Ave."},{"name":"Power Playground","latitude":"40.6182","longitude":"-73.9273","website":"http://www.nycgovparks.org/parks/B291/","nycParkId":"B291","location":"Ave. N between E. 49 St. and Utica Ave."},{"name":"Pratt Playground","latitude":"40.6926","longitude":"-73.9625","website":"http://www.nycgovparks.org/parks/B292/","nycParkId":"B292","location":"Willoughby Ave. between Stuben St. and Emerson Pl."},{"name":"Classon Playground","latitude":"40.6894","longitude":"-73.9606","website":"http://www.nycgovparks.org/parks/B293/","nycParkId":"B293","location":"Lafayette Ave. and Classon Ave."},{"name":"Jackie Robinson Park Playground","latitude":"40.6802","longitude":"-73.9277","website":"http://www.nycgovparks.org/parks/B294/","nycParkId":"B294","location":"Malcom X Blvd. between Chauncey St. and Marion St."},{"name":"Oxport Playground","latitude":"40.6975","longitude":"-73.9762","website":"http://www.nycgovparks.org/parks/B295/","nycParkId":"B295","location":"Flushing Ave. between N. Portland Ave. and N. Oxford St."},{"name":"Luna Playground","latitude":"40.576","longitude":"-73.9785","website":"http://www.nycgovparks.org/parks/B296/","nycParkId":"B296","location":"Surf Ave. between W. 12 St. and W. 8 St."},{"name":"Albemarle Playground","latitude":"40.6457","longitude":"-73.9806","website":"http://www.nycgovparks.org/parks/B297/","nycParkId":"B297","location":"Albemarle Rd., Dahill Rd., Mcdonald Ave."},{"name":"Stockton Playground","latitude":"40.6973","longitude":"-73.9485","website":"http://www.nycgovparks.org/parks/B298/","nycParkId":"B298","location":"Park Ave., Martin Luther King Pl., Marcy Ave."},{"name":"Oracle Playground","latitude":"40.6939","longitude":"-73.9715","website":"http://www.nycgovparks.org/parks/B300/","nycParkId":"B300","location":"Adelphi St., Myrtle Ave., Clermont Ave."},{"name":"Greene Playground","latitude":"40.6862","longitude":"-73.9659","website":"http://www.nycgovparks.org/parks/B301/","nycParkId":"B301","location":"Greene Ave. bet. Waverly Ave. and Washington Ave."},{"name":"Charlie's Place","latitude":"40.6991","longitude":"-73.946","website":"http://www.nycgovparks.org/parks/B302/","nycParkId":"B302","location":"Ellery St. at Delmonico Pl., Hopkinds St. bet. Tompkins Ave. and Throop Ave."},{"name":"Kennedy King Playground","latitude":"40.6586","longitude":"-73.9221","website":"http://www.nycgovparks.org/parks/B304/","nycParkId":"B304","location":"E. 93 St. to E. 94 St., between Lenox Rd. and Clarkson Ave."},{"name":"P.S. 279 Playground","latitude":"40.644","longitude":"-73.8931","website":"http://www.nycgovparks.org/parks/B305/","nycParkId":"B305","location":"E. 103 St. to E. 104 St. between Ave. J and Ave. K"},{"name":"Playground 286","latitude":"40.5909","longitude":"-73.9385","website":"http://www.nycgovparks.org/parks/B306/","nycParkId":"B306","location":"Ave. Y between Brown St. and Haring St."},{"name":"Tiger Playground","latitude":"40.6882","longitude":"-73.911","website":"http://www.nycgovparks.org/parks/B307/","nycParkId":"B307","location":"Evergreen Ave. between Eldert St. and Covert St."},{"name":"Yak Playground","latitude":"40.5926","longitude":"-73.9365","website":"http://www.nycgovparks.org/parks/B308/","nycParkId":"B308","location":"Ave. Y between Coyle St. and Batchelder St."},{"name":"Pink Playground","latitude":"40.6666","longitude":"-73.8627","website":"http://www.nycgovparks.org/parks/B309/","nycParkId":"B309","location":"Stanley Ave. and Eldert La."},{"name":"Bushwick Playground","latitude":"40.7018","longitude":"-73.9394","website":"http://www.nycgovparks.org/parks/B310/","nycParkId":"B310","location":"Flushing Ave. bet.. Beaver St. and Garden St."},{"name":"Ten Eyck Playground","latitude":"40.7089","longitude":"-73.9389","website":"http://www.nycgovparks.org/parks/B311/","nycParkId":"B311","location":"Scholes St bet. Bushwick Av and Waterbury St"},{"name":"Woodruff Playground","latitude":"40.6654","longitude":"-73.8661","website":"http://www.nycgovparks.org/parks/B312/","nycParkId":"B312","location":"Stanley Ave. between Autumn Ave. and Hemlock St."},{"name":"El Shabazz Playground","latitude":"40.6828","longitude":"-73.9304","website":"http://www.nycgovparks.org/parks/B313/","nycParkId":"B313","location":"Macdonough St. between Malcolm X Blvd. and Stuyvesant Ave."},{"name":"Surf Playground","latitude":"40.5737","longitude":"-73.9923","website":"http://www.nycgovparks.org/parks/B315/","nycParkId":"B315","location":"Surf Ave. between W. 25 St. and W. 27 St."},{"name":"DiGilio Playground","latitude":"40.6327","longitude":"-73.9771","website":"http://www.nycgovparks.org/parks/B316/","nycParkId":"B316","location":"Ave. F bet. McDonald Ave. and E. 2 St."},{"name":"Lafayette Gardens Playground","latitude":"40.6896","longitude":"-73.9574","website":"http://www.nycgovparks.org/parks/B317/","nycParkId":"B317","location":"Lafayette Ave. and Franklin Ave."},{"name":"Park Slope Playground","latitude":"40.6769","longitude":"-73.9785","website":"http://www.nycgovparks.org/parks/B320/","nycParkId":"B320","location":"Berkeley Pl. and Lincoln Pl. between 5 Ave. and 6 Ave."},{"name":"Edmonds Playground","latitude":"40.6892","longitude":"-73.9716","website":"http://www.nycgovparks.org/parks/B321/","nycParkId":"B321","location":"Dekalb Ave. between Adelphi St. and Carlton Ave."},{"name":"Pulaski Playground","latitude":"40.6936","longitude":"-73.9417","website":"http://www.nycgovparks.org/parks/B322/","nycParkId":"B322","location":"Hart St. to Pulaski St. between Throop Ave. and Marcus Garvey Blvd."},{"name":"Hattie Carthan Playground","latitude":"40.6856","longitude":"-73.9461","website":"http://www.nycgovparks.org/parks/B323/","nycParkId":"B323","location":"Monroe St. to Madison St. between Marcy Ave. and Tompkins Ave."},{"name":"Jacob Joffe Fields","latitude":40.625475,"longitude":-73.919437,"website":"http://www.nycgovparks.org/parks/B324/","nycParkId":"B324","location":"Ave. K between E. 58 St. and E. 59 St."},{"name":"Fish Playground","latitude":"40.6783","longitude":"-73.9148","website":"http://www.nycgovparks.org/parks/B325/","nycParkId":"B325","location":"Fulton St. between Saratoga Ave. and Hopkinson Ave."},{"name":"Cobble Hill Park","latitude":"40.6882","longitude":"-73.996","website":"http://www.nycgovparks.org/parks/B326/","nycParkId":"B326","location":"Clinton St. between Verandah Pl. and Congress St."},{"name":"Lindower Park","latitude":"40.6126","longitude":"-73.9115","website":"http://www.nycgovparks.org/parks/B329/","nycParkId":"B329","location":"Strickland Ave. between Mill Ave. and E. 60 Pl."},{"name":"Hickman Playground","latitude":"40.6203","longitude":"-73.9129","website":"http://www.nycgovparks.org/parks/B330/","nycParkId":"B330","location":"Veterans Ave. between E. 66 St. and E 68 St."},{"name":"Neptune Playground","latitude":"40.5782","longitude":"-73.9806","website":"http://www.nycgovparks.org/parks/B331/","nycParkId":"B331","location":"W. 12 St. between Neptune Ave. and Surf Ave."},{"name":"Evergreen Playground","latitude":"40.6861","longitude":"-73.9107","website":"http://www.nycgovparks.org/parks/B332/","nycParkId":"B332","location":"Decatur St. to Schaefer St. between Bushwick Ave. and Evergreen Ave."},{"name":"Fermi Playground","latitude":"40.7001","longitude":"-73.9283","website":"http://www.nycgovparks.org/parks/B334/","nycParkId":"B334","location":"Central Ave., Troutman St. and Starr St."},{"name":"Bildersee Playground","latitude":"40.6355","longitude":"-73.9116","website":"http://www.nycgovparks.org/parks/B335/","nycParkId":"B335","location":"Flatlands Ave. between E. 81 St. and E. 82 St."},{"name":"Abe Stark Skating Rink","latitude":40.573062,"longitude":-73.985833,"website":"http://www.nycgovparks.org/parks/B336/","nycParkId":"B336","location":"Surf Ave. to the Boardwalk between W. 19 St. and W. 20 St."},{"name":"Century Playground","latitude":"40.577","longitude":"-73.97","website":"http://www.nycgovparks.org/parks/B337/","nycParkId":"B337","location":"W. Brighton Ave. between W. 2 St. and W. 3 St."},{"name":"Tom McDonald Triangle","latitude":40.621883590367794,"longitude":-74.02251869280184,"website":"http://www.nycgovparks.org/parks/B338/","nycParkId":"B338","location":"Ft Hamilton Pkwy., 83 St., 6 Ave."},{"name":"Newport Playground","latitude":"40.6609","longitude":"-73.907","website":"http://www.nycgovparks.org/parks/B339/","nycParkId":"B339","location":"Riverdale Ave. bet. Thatford Ave. and Osborn St."},{"name":"Garden Playground","latitude":"40.7011","longitude":"-73.9383","website":"http://www.nycgovparks.org/parks/B340/","nycParkId":"B340","location":"Flushing Ave. between Beaver St. and Garden St."},{"name":"100% Playground","latitude":"40.6465","longitude":"-73.8992","website":"http://www.nycgovparks.org/parks/B342/","nycParkId":"B342","location":"Glenwood Rd. between E. 100 St. and E. 101 St."},{"name":"Osborn Playground","latitude":"40.6557","longitude":"-73.9061","website":"http://www.nycgovparks.org/parks/B343/","nycParkId":"B343","location":"Linden Blvd., Osborn St., Rockaway Ave., Hegeman Ave."},{"name":"Ethan Allen Playground","latitude":"40.6557","longitude":"-73.8869","website":"http://www.nycgovparks.org/parks/B345/","nycParkId":"B345","location":"Wortman Ave. between Vermont St. and New Jersey Ave."},{"name":"Ericsson Playground","latitude":"40.7202","longitude":"-73.9481","website":"http://www.nycgovparks.org/parks/B346/","nycParkId":"B346","location":"Manhattan Ave. and Leonard St."},{"name":"Carver Playground","latitude":"40.6803","longitude":"-73.9206","website":"http://www.nycgovparks.org/parks/B347/","nycParkId":"B347","location":"Sumpter St. to Marion St. between Howard Ave. and Ralph Ave. "},{"name":"Willoughby Playground","latitude":"40.6944","longitude":"-73.9467","website":"http://www.nycgovparks.org/parks/B348/","nycParkId":"B348","location":"Tompkins Ave., Willoughby Ave., Vernon Ave."},{"name":"Bath Playground","latitude":"40.5946","longitude":"-73.9936","website":"http://www.nycgovparks.org/parks/B349/","nycParkId":"B349","location":"Bath Ave. between 24 Ave. and Bay 37 St."},{"name":"Stroud Playground","latitude":"40.675","longitude":"-73.9619","website":"http://www.nycgovparks.org/parks/B350/","nycParkId":"B350","location":"Sterling Pl. to Park Pl. between Classon Ave. and Washington Ave."},{"name":"Kosciuszko Pool","latitude":"40.6912","longitude":"-73.9496","website":"http://www.nycgovparks.org/parks/B351/","nycParkId":"B351","location":"Marcy Ave. between Kosciuszko St. and Dekalb Ave."},{"name":"Curtis Playground","latitude":"40.6409","longitude":"-73.9174","website":"http://www.nycgovparks.org/parks/B352/","nycParkId":"B352","location":"Foster Ave. between E. 81 St. and E. 82 St."},{"name":"Bergen Beach Playground","latitude":"40.6224","longitude":"-73.9096","website":"http://www.nycgovparks.org/parks/B353/","nycParkId":"B353","location":"E. 71 St. between Ave. N and Ave. T"},{"name":"North Pacific Playground","latitude":"40.6853","longitude":"-73.9821","website":"http://www.nycgovparks.org/parks/B356/","nycParkId":"B356","location":"Pacific St. between Nevins St. and 3 Ave."},{"name":"Jackie Robinson Playground","latitude":"40.6658","longitude":"-73.9592","website":"http://www.nycgovparks.org/parks/B357/","nycParkId":"B357","location":"Montgomery St. between Franklin Ave. and McKeever Pl."},{"name":"De Hostos Playground","latitude":"40.7027","longitude":"-73.9493","website":"http://www.nycgovparks.org/parks/B358/","nycParkId":"B358","location":"Harrison Ave. between Walton St. and Lorimer St."},{"name":"Eleanor Roosevelt Playground","latitude":"40.6928","longitude":"-73.9355","website":"http://www.nycgovparks.org/parks/B359/","nycParkId":"B359","location":"Kosciuszko St. to Dekalb Ave. between Lewis Ave. and Stuyvesant Ave."},{"name":"Remsen Playground","latitude":"40.6423","longitude":"-73.9073","website":"http://www.nycgovparks.org/parks/B360/","nycParkId":"B360","location":"Remsen Ave. and Glenwood Rd."},{"name":"Boerum Park","latitude":"40.6847","longitude":"-73.9903","website":"http://www.nycgovparks.org/parks/B361/","nycParkId":"B361","location":"Warren St. to Baltic St. between Hoyt St. and Smith St."},{"name":"Chester Playground","latitude":"40.6688","longitude":"-73.9119","website":"http://www.nycgovparks.org/parks/B362/","nycParkId":"B362","location":"Chester St. to Bristol St. between Sutter Ave. and Pitkin Ave."},{"name":"Houston Playground","latitude":"40.6722","longitude":"-73.9051","website":"http://www.nycgovparks.org/parks/B363/","nycParkId":"B363","location":"Glenmore Ave. between Powell St. and Sackman St."},{"name":"Woods Playground","latitude":"40.6745","longitude":"-73.9289","website":"http://www.nycgovparks.org/parks/B364/","nycParkId":"B364","location":"Bergen St., Utica Ave., Rochester Ave., St Mark's Ave."},{"name":"Duke Park","latitude":40.666712200000006,"longitude":-73.8934041,"website":"http://www.nycgovparks.org/parks/B366/","nycParkId":"B366","location":"New Jersey Ave. between Blake Ave. and Dumont Ave."},{"name":"Livonia Park","latitude":40.6646541,"longitude":-73.9021403,"website":"http://www.nycgovparks.org/parks/B367/","nycParkId":"B367","location":"Livonia Ave. between Powell St. and Junius St."},{"name":"The Cyclone","latitude":40.5735764,"longitude":-73.97782227998329,"website":"http://www.nycgovparks.org/parks/B368/","nycParkId":"B368","location":"W. 10 St. between Surf Ave. and Public Beach"},{"name":"Steeplechase Park","latitude":40.5750266122449,"longitude":-73.98572367346938,"website":"http://www.nycgovparks.org/parks/B369/","nycParkId":"B369","location":"Surf Ave. between W. 16 St. and W. 19 St., Public Beach"},{"name":"Spring Creek Park","latitude":40.6624759,"longitude":-73.8586356,"website":"http://www.nycgovparks.org/parks/B371/","nycParkId":"B371","location":"Shore Pkwy and Seaview Ave., Schenk Ave."},{"name":"Friends Field","latitude":"40.6184","longitude":"-73.9722","website":"http://www.nycgovparks.org/parks/B372/","nycParkId":"B372","location":"Ave. L, E. 4 St., Mcdonald Ave., Ave. M"},{"name":"Chiarantano Playground","latitude":"40.6358","longitude":"-73.9331","website":"http://www.nycgovparks.org/parks/B375/","nycParkId":"B375","location":"Farragut Rd. between E. 45 St. and E. 46 St."},{"name":"Fidler-Wyckoff House Park","latitude":40.6443097,"longitude":-73.9207062,"website":"http://www.nycgovparks.org/parks/B376/","nycParkId":"B376","location":"E. 59 St.,Ditmas Ave., Clarendon Rd., Ralph Ave."},{"name":"Floyd Patterson Ballfields","latitude":40.659929,"longitude":-73.904248,"website":"http://www.nycgovparks.org/parks/B377/","nycParkId":"B377","location":"Christopher Ave., Riverdale Ave., Newport St., Mother Gaston Blvd."},{"name":"University Place","latitude":40.69118830902478,"longitude":-73.98169554652743,"website":"http://www.nycgovparks.org/parks/B378/","nycParkId":"B378","location":"Flatbush Ave. at Fleet St."},{"name":"Coney Island Creek Park","latitude":40.58129598256286,"longitude":-74.00496497675387,"website":"http://www.nycgovparks.org/parks/B379/","nycParkId":"B379","location":"Bay View Ave. between Sea Gate Ave. and W. 33 St."},{"name":"Robert E. Venable Park","latitude":"40.6744","longitude":"-73.8652","website":"http://www.nycgovparks.org/parks/B380/","nycParkId":"B380","location":"Belmont Ave., Sutter Ave., Sheridan Ave. and Grant Ave."},{"name":"Thomas Boyland Park","latitude":"40.6819","longitude":"-73.9078","website":"http://www.nycgovparks.org/parks/B381/","nycParkId":"B381","location":"Broadway between Granite St. and Aberdeen St."},{"name":"Roberto Clemente Ballfield","latitude":40.705500173913045,"longitude":-73.9677362173913,"website":"http://www.nycgovparks.org/parks/B382A/","nycParkId":"B382A","location":"Division Ave. between Wythe Ave. and Kent Ave."},{"name":"Jacob's Ladder Playground","latitude":"40.7049","longitude":"-73.967","website":"http://www.nycgovparks.org/parks/B382B/","nycParkId":"B382B","location":"Clymer St. to Morton St. between Kent Ave. and Wythe Ave."},{"name":"Fresh Creek Nature Preserve","latitude":40.64478115,"longitude":-73.8845798741324,"website":"http://www.nycgovparks.org/parks/B384/","nycParkId":"B384","location":"Flatlands Ave, Louisiana Ave., E 108 St. and Belt Parkway"},{"name":"WNYC Transmitter Park","latitude":"40.7299","longitude":"-73.9605","website":"http://www.nycgovparks.org/parks/B385/","nycParkId":"B385","location":"West St. bet. Kent St. and Greenpoint Ave."},{"name":"Ten Eyck Plaza","latitude":"40.7093","longitude":"-73.9494","website":"http://www.nycgovparks.org/parks/B386/","nycParkId":"B386","location":"Ten Eyck St. to Stagg St. between Lorimer St. and Union Ave."},{"name":"Hilltop Playground","latitude":"40.6753","longitude":"-73.9143","website":"http://www.nycgovparks.org/parks/B387/","nycParkId":"B387","location":"Hopkinson Ave. bet. Pacific St. and Dean St."},{"name":"Gateway Triangle","latitude":40.68364269811321,"longitude":-73.96721549056605,"website":"http://www.nycgovparks.org/parks/B388/","nycParkId":"B388","location":"Vanderbilt Ave., Gates Ave. and Fulton St."},{"name":"Umma Park","latitude":"40.6535","longitude":"-73.9619","website":"http://www.nycgovparks.org/parks/B389/","nycParkId":"B389","location":"Woodruff Ave. and Ocean Ave."},{"name":"Mother Cabrini Park","latitude":"40.6843","longitude":"-74.0048","website":"http://www.nycgovparks.org/parks/B390/","nycParkId":"B390","location":"President St. and Van Brunt St."},{"name":"Lt. Federico Narvaez Tot Lot","latitude":40.640279,"longitude":-73.965946,"website":"http://www.nycgovparks.org/parks/B391/","nycParkId":"B391","location":"Argyle Rd. and Cortelyou Rd."},{"name":"Lott Park","latitude":40.648025938775504,"longitude":-73.95403312244898,"website":"http://www.nycgovparks.org/parks/B392/","nycParkId":"B392","location":"Albemarle Rd. between Bedford Ave. and Veronica Pl. at Lott St."},{"name":"Sheepshead Bay Piers","latitude":40.583961,"longitude":-73.945976,"website":"http://www.nycgovparks.org/parks/B393/","nycParkId":"B393","location":"Emmons Ave. bet. Ocean Ave. and E. 26 St."},{"name":"Four Sparrow Marsh","latitude":40.6009176,"longitude":-73.90517563234354,"website":"http://www.nycgovparks.org/parks/B394/","nycParkId":"B394","location":"Flatbush Ave., Belt Pkwy., Mill Basin"},{"name":"Green Central Knoll","latitude":"40.7024","longitude":"-73.9335","website":"http://www.nycgovparks.org/parks/B395/","nycParkId":"B395","location":"Flushing Ave., Central Ave., Noll St., Evergreen Ave."},{"name":"Nehemiah Park","latitude":"40.6618","longitude":"-73.9054","website":"http://www.nycgovparks.org/parks/B396/","nycParkId":"B396","location":"Watkins St., Mother Gaston Blvd., Livonia Ave., Riverdale Ave."},{"name":"Carter G. Woodson Children's Park","latitude":"40.6685","longitude":"-73.9058","website":"http://www.nycgovparks.org/parks/B397/","nycParkId":"B397","location":"Christopher Ave. between Sutter Ave. and Belmont Ave."},{"name":"Hattie Carthan Community Garden","latitude":40.689876,"longitude":-73.948456,"website":"http://www.nycgovparks.org/parks/B400/","nycParkId":"B400","location":"Marcy Ave between Clifton Pl. and Lafayette Ave."},{"name":"Grand Ferry Park","latitude":40.700920350000004,"longitude":-73.91266000489429,"website":"http://www.nycgovparks.org/parks/B401/","nycParkId":"B401","location":"Grand St. at River St. "},{"name":"George Walker Jr. Park","latitude":"40.6786","longitude":"-73.8951","website":"http://www.nycgovparks.org/parks/B402/","nycParkId":"B402","location":"Wyona St. to Vermont St. between Fulton St. and Jamaica Ave."},{"name":"Harmony Park","latitude":40.6808474,"longitude":-73.8748891,"website":"http://www.nycgovparks.org/parks/B403/","nycParkId":"B403","location":"Troy Ave. to Schenectady Ave. between Atlantic Ave. and Herkimer St."},{"name":"East Flatbush Children's Playground","latitude":40.66327,"longitude":-73.926963,"website":"http://www.nycgovparks.org/parks/B404/","nycParkId":"B404","location":"E. 94 St. bet. Rutland Rd. and E. New York Ave."},{"name":"Epiphany Playground","latitude":"40.7085","longitude":"-73.9656","website":"http://www.nycgovparks.org/parks/B405/","nycParkId":"B405","location":"Berry St. between S. 9 St. and S. 10 St."},{"name":"Paerdegat Basin Park","latitude":40.62882395,"longitude":-73.90786957034717,"website":"http://www.nycgovparks.org/parks/B406/","nycParkId":"B406","location":"Bergen Ave., E. 76 St., Paerdegat Ave. North"},{"name":"South Oxford Park","latitude":"40.6836","longitude":"-73.9724","website":"http://www.nycgovparks.org/parks/B407/","nycParkId":"B407","location":"S. Oxford St. bet. Commos and Atlantic Ave."},{"name":"Valentino Pier","latitude":40.67807287755102,"longitude":-74.01710889795919,"website":"http://www.nycgovparks.org/parks/B418/","nycParkId":"B418","location":"Ferris St. between Coffey St. and Van Dyke St. "},{"name":"Sutter Ballfields","latitude":40.671322,"longitude":-73.887654,"website":"http://www.nycgovparks.org/parks/B419/","nycParkId":"B419","location":"Belmont Ave. to Sutter Ave. between Schenck Ave. and Barbey St."},{"name":"Hope Ballfield","latitude":"40.6974","longitude":"-73.9175","website":"http://www.nycgovparks.org/parks/B429/","nycParkId":"B429","location":"Knickerbocker Ave. between Grove St. and Menahan St."},{"name":"Lewis Playground","latitude":"40.6954","longitude":"-73.9379","website":"http://www.nycgovparks.org/parks/B430/","nycParkId":"B430","location":"Willoughby Ave. between Lewis Ave. and Marcus Garvey Blvd."},{"name":"Brooklyn Bridge Park","latitude":"40.7041","longitude":"-73.9902","website":"http://www.nycgovparks.org/parks/B431/","nycParkId":"B431","location":"Brooklyn Waterfront From Washington St To Atlantic Ave"},{"name":"American Veterans Memorial Pier","latitude":40.639376299999995,"longitude":-74.03775687863305,"website":"http://www.nycgovparks.org/parks/B432/","nycParkId":"B432","location":"Bay Ridge Ave., Shore Rd., Upper Bay"},{"name":"Tilyou Playground","latitude":40.573071,"longitude":-73.983518,"website":"http://www.nycgovparks.org/parks/B435/","nycParkId":"B435","location":"Brighton Beach Ave. between Brighton 11 St. and Oceana Ter."},{"name":"Bushwick Inlet Park","latitude":"40.7218","longitude":"-73.9615","website":"http://www.nycgovparks.org/parks/B529/","nycParkId":"B529","location":"Kent Ave. bet. Quay St. and N 9 St."},{"name":"North 5th Street Pier and Park","latitude":40.72042862327251,"longitude":-73.96417734651362,"website":"http://www.nycgovparks.org/parks/B536/","nycParkId":"B536","location":"Kent Ave. bet. N. 4 St. and N. 7 St."},{"name":"Park","latitude":40.6826872,"longitude":-73.9609884,"website":"http://www.nycgovparks.org/parks/BZ252/","nycParkId":"BZ252","location":"Grand Ave. bet. Putnam Ave. and Fulton St."},{"name":"Berriman Playground","latitude":40.65630958823529,"longitude":-73.86988864705881,"website":"http://www.nycgovparks.org/parks/B541/","nycParkId":"B541","location":"Berriman St. between Vandalia Ave. and Schroeders Ave."},{"name":"Beaver Noll Park","latitude":"40.6996","longitude":"-73.9361","website":"http://www.nycgovparks.org/parks/B555/","nycParkId":"B555","location":"Beaver St. bet. Locust St. and Arion Pl."},{"name":"Prospect Plaza Park","latitude":40.67160525,"longitude":-73.91842128571429,"website":"http://www.nycgovparks.org/parks/B585/","nycParkId":"B585","location":"Park Pl. to Sterling Pl. bet. Howard Ave. and Saratoga Ave."},{"name":"Schaefer Landing","latitude":40.70938321140624,"longitude":-73.96961568858882,"website":"http://www.nycgovparks.org/parks/B591/","nycParkId":"B591","location":"East River and Kent Ave. between S. 9th St. and S. 10 St."},{"name":"Betty Carter Park","latitude":40.687138,"longitude":-73.977057,"website":"http://www.nycgovparks.org/parks/B592/","nycParkId":"B592","location":"Lafayette Ave., Fulton St., bet. St. Felix St. and Ft. Greene Pl."},{"name":"Maple Street Community Garden","latitude":40.6607787804878,"longitude":-73.95275868292683,"website":"http://www.nycgovparks.org/parks/B594/","nycParkId":"B594","location":"Maple St. bet. Rogers Ave. and Nostrand Ave."},{"name":"Greenpoint Landing","latitude":40.73554265,"longitude":-73.95995618215734,"website":"http://www.nycgovparks.org/parks/B595/","nycParkId":"B595","location":"Commercial St. bet. Franklin St. and Clay St."},{"name":"Holocaust Memorial Park","latitude":40.58277619816136,"longitude":-73.95352236985372,"website":"http://www.nycgovparks.org/parks/BT10/","nycParkId":"BT10","location":"Shore Blvd. and Emmons Ave.. Neptune Ave."},{"name":"Bush Terminal Park","latitude":40.65341076941135,"longitude":-74.02001650051022,"website":"http://www.nycgovparks.org/parks/BT15/","nycParkId":"BT15","location":"Marginal St. bet. 44 St. and 50 St."},{"name":"St. Mark's Playground","latitude":40.67540323697873,"longitude":-73.94005407895084,"website":"http://www.nycgovparks.org/parks/BT16/","nycParkId":"BT16","location":"St. Mark's Ave. bet. Kingston Ave. and Albany St."},{"name":"Babi Yar Triangle","latitude":"40.5794","longitude":"-73.9547","website":"http://www.nycgovparks.org/parks/BZ10/","nycParkId":"BZ10","location":"B 14 St & Corbin Place"},{"name":"Schloss Triangle","latitude":40.583316844663926,"longitude":-73.95704644657849,"website":"http://www.nycgovparks.org/parks/BZ239/","nycParkId":"BZ239","location":"Neptune Ave & East 12th St"},{"name":"Mickey Kairey Garden","latitude":40.604738,"longitude":-73.968391,"website":"http://www.nycgovparks.org/parks/BZ502/","nycParkId":"BZ502","location":"Kings Hwy, E5 St & Av R"},{"name":"Ascenzi Square","latitude":40.714960052485495,"longitude":-73.95678751582639,"website":"http://www.nycgovparks.org/parks/BZ55/","nycParkId":"BZ55","location":"Metropolitan Avenue, Roebling St, North "},{"name":"Jewel Square","latitude":40.682566589773266,"longitude":-73.90053344968656,"website":"http://www.nycgovparks.org/parks/BZ80/","nycParkId":"BZ80","location":"Williams Ave, Alabama Ave, Jamaica Ave, and Fulton St"},{"name":"Abingdon Square","latitude":40.7373275,"longitude":-74.00542840880144,"website":"http://www.nycgovparks.org/parks/M001/","nycParkId":"M001","location":"Hudson St, 8 Av, W 12 St"},{"name":"Ahearn Park","latitude":40.7147222,"longitude":-73.9836111,"website":"http://www.nycgovparks.org/parks/M002/","nycParkId":"M002","location":"Grand St, E Broadway and Willet St"},{"name":"Annunciation Playground","latitude":"40.8183","longitude":"-73.9521","website":"http://www.nycgovparks.org/parks/M003/","nycParkId":"M003","location":"Convent and Amsterdam Av, W 135 St"},{"name":"The Battery","latitude":"40.7018","longitude":"-74.0144","website":"http://www.nycgovparks.org/parks/M005/","nycParkId":"M005","location":"Battery Pl, State St and Whitehall St"},{"name":"Tribeca Park","latitude":40.72013985,"longitude":-74.00547713936284,"website":"http://www.nycgovparks.org/parks/M006/","nycParkId":"M006","location":"Walker St., Beach St. bet. St. John's La. and Ave. of the Americas"},{"name":"Bowling Green","latitude":40.70504105,"longitude":-74.0136482462672,"website":"http://www.nycgovparks.org/parks/M007/","nycParkId":"M007","location":"Broadway and Whitehall St."},{"name":"Bryant Park","latitude":40.7374588,"longitude":-73.997068,"website":"http://www.nycgovparks.org/parks/M008/","nycParkId":"M008","location":"bet. 5 and 6 Av, W 40 St and W 42 St"},{"name":"Bennett Park","latitude":"40.8528","longitude":"-73.9381","website":"http://www.nycgovparks.org/parks/M009/","nycParkId":"M009","location":"Ft Washington Av, W 183 St, Pinehurst Av"},{"name":"Central Park","latitude":"40.7686","longitude":"-73.9774","website":"http://www.nycgovparks.org/parks/M010/","nycParkId":"M010","location":"5 Av To Central Park W, 59 St To 110 St"},{"name":"Chelsea Park","latitude":"40.7499","longitude":"-74.0006","website":"http://www.nycgovparks.org/parks/M011/","nycParkId":"M011","location":"9 Av To 10 Av, W 27 St To W 28 St"},{"name":"Christopher Park","latitude":40.7335823,"longitude":-74.00238686901567,"website":"http://www.nycgovparks.org/parks/M012/","nycParkId":"M012","location":"Christopher St, Grove St, W 4 St"},{"name":"City Hall Park","latitude":40.713398999999995,"longitude":-74.00554294770185,"website":"http://www.nycgovparks.org/parks/M013/","nycParkId":"M013","location":"Broadway, Park Row and Chambers St"},{"name":"Jackie Robinson Park","latitude":"40.8279","longitude":"-73.9399","website":"http://www.nycgovparks.org/parks/M014/","nycParkId":"M014","location":"Bradhurst Av and Edgecombe Av, W 145 St To"},{"name":"Columbus Park","latitude":"40.7152","longitude":"-74","website":"http://www.nycgovparks.org/parks/M015/","nycParkId":"M015","location":"Baxter St, Mulberry St, Bayard St and Park"},{"name":"Cooper Triangle","latitude":40.728888049999995,"longitude":-73.99077936100332,"website":"http://www.nycgovparks.org/parks/M016/","nycParkId":"M016","location":"3 Av To 4 Av, E 6 St To E 7 St"},{"name":"Corlears Hook Park","latitude":"40.7118","longitude":"-73.9793","website":"http://www.nycgovparks.org/parks/M017/","nycParkId":"M017","location":"Jackson St, Cherry St, FDR Drive"},{"name":"Carmansville Playground","latitude":"40.8292","longitude":"-73.9442","website":"http://www.nycgovparks.org/parks/M018/","nycParkId":"M018","location":"Amsterdam Av, W 151 St To W 152 St"},{"name":"Coleman Playground","latitude":"40.7112","longitude":"-73.9932","website":"http://www.nycgovparks.org/parks/M019/","nycParkId":"M019","location":"Cherry St, Pike St, Monroe St"},{"name":"Dante Park","latitude":40.7719946,"longitude":-73.9824897598142,"website":"http://www.nycgovparks.org/parks/M020/","nycParkId":"M020","location":"Broadway, Columbus Av, W 63 St"},{"name":"A Philip Randolph Square","latitude":40.80377645,"longitude":-73.95245799327594,"website":"http://www.nycgovparks.org/parks/M021/","nycParkId":"M021","location":"7 Av, St Nicholas Av, W 117 St"},{"name":"De Witt Clinton Park","latitude":"40.7682","longitude":"-73.9943","website":"http://www.nycgovparks.org/parks/M022/","nycParkId":"M022","location":"W. 52 St. To W. 54 St., 11 Ave. To 12 Ave."},{"name":"Donnellan Square","latitude":40.8269444,"longitude":-73.9427778,"website":"http://www.nycgovparks.org/parks/M023/","nycParkId":"M023","location":"St Nicholas Av, W 150 St To St Nicholas Av"},{"name":"Dorrance Brooks Square","latitude":40.818307805191765,"longitude":-73.94746326974266,"website":"http://www.nycgovparks.org/parks/M024/","nycParkId":"M024","location":"W 136 St To W 137 St, St Nicholas Av, Edgecom Av"},{"name":"Duane Park","latitude":40.71714145,"longitude":-74.00932421813076,"website":"http://www.nycgovparks.org/parks/M025/","nycParkId":"M025","location":"Hudson St., Duane St."},{"name":"Dyckman House Museum","latitude":40.8673323,"longitude":-73.9228269,"website":"http://www.nycgovparks.org/parks/M026/","nycParkId":"M026","location":"Broadway and W. 204 St."},{"name":"Downing Street Playground","latitude":"40.7298","longitude":"-74.0027","website":"http://www.nycgovparks.org/parks/M027/","nycParkId":"M027","location":"Downing St to Carmine St, Av Of Americas"},{"name":"Fort Washington Park","latitude":"40.8388","longitude":"-73.9462","website":"http://www.nycgovparks.org/parks/M028/","nycParkId":"M028","location":"Riverside Dr., Hudson River, W. 155 St. to Dyckman St."},{"name":"Fort Tryon Park","latitude":"40.8589","longitude":"-73.9345","website":"http://www.nycgovparks.org/parks/M029/","nycParkId":"M029","location":"Riverside Dr To Broadway, W 192 St To Dyckman St"},{"name":"Thomas Paine Park","latitude":43.14346471428571,"longitude":-77.59247742857143,"website":"http://www.nycgovparks.org/parks/M030/","nycParkId":"M030","location":"Lafayette St., Centre St. bet. Worth St., Pearl St. and Duane St."},{"name":"Amelia Gorman Park","latitude":40.855266,"longitude":-73.932412,"website":"http://www.nycgovparks.org/parks/M031/","nycParkId":"M031","location":"Broadway To Wadsworth Terr, W 189 St To W 190 St"},{"name":"Greeley Square Park","latitude":40.7374588,"longitude":-73.997068,"website":"http://www.nycgovparks.org/parks/M032/","nycParkId":"M032","location":"Broadway, Av of the Americas, bet. W. 32 St. and W. 33 St."},{"name":"Hamilton Fish Park","latitude":"40.7198","longitude":"-73.9808","website":"http://www.nycgovparks.org/parks/M033/","nycParkId":"M033","location":"E Houston St, Stanton St, Sheriff St, Pitt St"},{"name":"Hancock Park","latitude":40.80955065,"longitude":-73.95328299719253,"website":"http://www.nycgovparks.org/parks/M034/","nycParkId":"M034","location":"St Nicholas Av, Manhattan Av, W 123 St"},{"name":"Colonel Charles Young Triangle","latitude":40.8272099,"longitude":-73.93586880059246,"website":"http://www.nycgovparks.org/parks/M035/","nycParkId":"M035","location":"7 Ave., Macombs Pl., At W. 153 St."},{"name":"Herald Square","latitude":40.7495023,"longitude":-73.9879917140461,"website":"http://www.nycgovparks.org/parks/M036/","nycParkId":"M036","location":"Broadway, Ave of the Americas, bet. W. 34 St. and W. 35 St."},{"name":"Highbridge Park","latitude":"40.8377","longitude":"-73.9361","website":"http://www.nycgovparks.org/parks/M037/","nycParkId":"M037","location":"W 155 St and Dyckman St, Edgecombe Av & Amsterdam Av"},{"name":"James J Walker Park","latitude":"40.7298","longitude":"-74.0061","website":"http://www.nycgovparks.org/parks/M038/","nycParkId":"M038","location":"Hudson St, St Luke's Pl, Clarkson St, 7 Av"},{"name":"Harlem River Park","latitude":40.80631065,"longitude":-73.93380736551387,"website":"http://www.nycgovparks.org/parks/M039/","nycParkId":"M039","location":"Harlem River Dr. from E. 131 St. to W. 145 St. and W. 155 St. to Dyckman St."},{"name":"Johnny Hartman Square","latitude":40.82417135,"longitude":-73.94858453266633,"website":"http://www.nycgovparks.org/parks/M040/","nycParkId":"M040","location":"Amsterdam Av, W 143 St and Hamilton Pl"},{"name":"Alexander Hamilton Playground","latitude":"40.8231","longitude":"-73.9512","website":"http://www.nycgovparks.org/parks/M041/","nycParkId":"M041","location":"Hamilton Pl., W. 140 St. To W. 141 St."},{"name":"Inwood Hill Park","latitude":"40.8672","longitude":"-73.9288","website":"http://www.nycgovparks.org/parks/M042/","nycParkId":"M042","location":"Dyckman St, Hudson River, Harlem River S"},{"name":"Isham Park","latitude":40.86954271405424,"longitude":-73.9191485703475,"website":"http://www.nycgovparks.org/parks/M043/","nycParkId":"M043","location":"Broadway, Isham St, Inwood Pk"},{"name":"Jackson Square","latitude":40.738913350000004,"longitude":-74.00286601685772,"website":"http://www.nycgovparks.org/parks/M044/","nycParkId":"M044","location":"8 Ave. To Greenwich Ave., Horatio St."},{"name":"John Jay Park","latitude":"40.7692","longitude":"-73.9495","website":"http://www.nycgovparks.org/parks/M045/","nycParkId":"M045","location":"FDR Dr., E 76 St. To E 78 St."},{"name":"Vietnam Veterans Plaza","latitude":40.70176917647059,"longitude":-74.011639,"website":"http://www.nycgovparks.org/parks/M046/","nycParkId":"M046","location":"N/S South St bet. Broad St and Old Slip"},{"name":"Thomas Jefferson Park","latitude":"40.7934","longitude":"-73.934","website":"http://www.nycgovparks.org/parks/M047/","nycParkId":"M047","location":"1 Ave., FDR Dr., bet. E. 111 St. and E. 114 St."},{"name":"Joan Of Arc Park","latitude":40.7938225,"longitude":-73.9766585,"website":"http://www.nycgovparks.org/parks/M048/","nycParkId":"M048","location":"Riverside Dr., W. 91 St. To W. 95 St."},{"name":"Richard Tucker Park","latitude":40.77399832142857,"longitude":-73.98140585714286,"website":"http://www.nycgovparks.org/parks/M051/","nycParkId":"M051","location":"Broadway To Columbus Ave, W. 66 St."},{"name":"Madison Square Park","latitude":"40.7425","longitude":"-73.9873","website":"http://www.nycgovparks.org/parks/M052/","nycParkId":"M052","location":"Broadway, Madison Ave. bet. E. 23 St. and E. 26 St."},{"name":"Theodore Roosevelt Park","latitude":40.7814394,"longitude":-73.9732273,"website":"http://www.nycgovparks.org/parks/M053/","nycParkId":"M053","location":"Central Park W, Columbus Av, W 77 To W 81 Sts"},{"name":"Mitchel Square","latitude":40.8088168,"longitude":-73.9632044,"website":"http://www.nycgovparks.org/parks/M054/","nycParkId":"M054","location":"Broadway, St Nicholas Av, W 166 St To W 168 St"},{"name":"Montefiore Square","latitude":40.821393,"longitude":-73.9537444234604,"website":"http://www.nycgovparks.org/parks/M055/","nycParkId":"M055","location":"Broadway, Hamilton Pl., W. 138 St."},{"name":"Morningside Park","latitude":"40.8098","longitude":"-73.9559","website":"http://www.nycgovparks.org/parks/M056/","nycParkId":"M056","location":"W 110 St To W 123 St, Manhattan Av To Morningside Av"},{"name":"Marcus Garvey Park","latitude":"40.8033","longitude":"-73.9431","website":"http://www.nycgovparks.org/parks/M058/","nycParkId":"M058","location":"Madison Ave, E. 120 St. to E. 124 St."},{"name":"Murphy Brothers Playground","latitude":"40.7302","longitude":"-73.9733","website":"http://www.nycgovparks.org/parks/M059/","nycParkId":"M059","location":"Ave. C, FDR Dr., E. 17 St."},{"name":"Park Avenue Malls","latitude":40.78685295,"longitude":-73.95233561595882,"website":"http://www.nycgovparks.org/parks/M060A/","nycParkId":"M060A","location":"E 57 St To E 59 St and Park Av"},